id|name|latitude|longitude|city|country|postcode|type|adult_ticket_price|adult_ticket_price_currency|child_ticket_price|child_ticket_price_currency|chosen_tags|sites|supplier|vendor_id
40|The Other Art Fair London: Private View complimentary tickets|51.520973|-0.072503|London|United Kingdom|E1 6QL|complimentary_event|25.000|GBP||GBP|Art & Culture||The Leaf Group|129763
41|Exclusive London Art Week tour and drinks reception|51.509314|-0.147734|London|United Kingdom|W1J 5NF|member_event|10.000|EUR||GBP|Art and exhibitions|335|London Art Week|137594
42|A once-in-a-lifetime weekend trip to Monte Carlo|43.774847|6.644325|Var|France|83840|member_event|3540.000|EUR||GBP|Travel|335|Kracker|137401
44|Indian Feasting with paired wines at Gul & Sepoy|51.517851|-0.074109|London|United Kingdom|E1 6BD|member_event|55.000|EUR||GBP|Food and dining|335|Gul & Sepoy|136957
45|Martin Moore Showroom: ceviche masterclass & wine tasting with Pied à Terre’s chef & sommelier|51.368427|-0.367281|Esher|United Kingdom|KT10 9QJ|member_event|25.000|GBP||GBP|Drinks,Food and dining,Home and garden|112,2,256,257,265,282,301|Martin Moore|
47|Sue Haskel Art Exhibition The Third Dimension Preview Night complimentary tickets|51.508644|-0.151120|London|United Kingdom|W1K 2BN|complimentary_event||GBP||GBP|Art and exhibitions|335|Exclamation PR|137588
48|Join us for an exclusive FIFA World Cup Final private viewing at The Wigmore at The Langham, London - fully booked|51.517495|-0.143137|London|United Kingdom|W1B 1JA|member_event|35.000|GBP||GBP|Food and dining,Football|2|The Wigmore|135243
49|Masterpiece London 2018 complimentary tickets|-0.159899|51.485487|London|United Kingdom|SW3 4LW|complimentary_event|0.000|GBP|0.000|GBP|Art and exhibitions|335|Masterpiece London|134675
50|Exclusive Mayfair Art Weekend tour followed by a three-course lunch at 45 Jermyn St.|51.508010|-0.140483|London|United Kingdom|SW1Y 6DN|member_event|95.000|EUR||GBP|Art & Culture,Food and dining|335||134753
51|Authentic Aperitivo cocktail making masterclass|51.501974|-0.184872|London|United Kingdom|SW7 5BB|member_event|60.000|GBP||GBP|Drinks|||
52|Become a margarita master in an interactive cocktail experience at Ella Canta|51.503653|-0.150689|London|United Kingdom|W1J 7QY|member_event|45.000|EUR||GBP|Food and dining|335|Ella Canta|135016
53|Authentic aperitivo cocktail making masterclass at the Baglioni Hotel London|51.501750|-0.184850|London|United Kingdom|SW75BB|member_event|60.000|GBP||GBP|Food and dining,Hotels||Baglioni Hotel London|104363
54|Member exclusive: VIP feasting and curated cocktail evening at Brigadiers|51.512626|-0.091740|London|United Kingdom|EC4N 8AR|member_event|65.000|GBP||GBP|Food and dining||Brigadiers|135369
55|Enjoy Oxley gin cocktails and a masterclass on the roof terrace at Craft London|51.500459|0.005325|London|United Kingdom|SE10 0SQ|member_event|15.000|GBP||GBP|Food and dining||Craft London|126455
56|Seven-course tasting menu at two-Michelin-starred sketch|51.512693|-0.141529|London|United Kingdom|W1S 2XG|member_event|265.000|GBP||GBP|Food and dining||sketch|100656
58|Taste of London: complimentary tickets|51.508176|-0.061760|London|United Kingdom|E1W2SF|complimentary_event|17.000|GBP||GBP|Food and dining|112,2,255,282,301|Taste of London|101641
59|Erdinger Oktoberfest London 2018 complimentary tickets|51.541002|-0.012626|London|United Kingdom|E202ST|complimentary_event||GBP||GBP|Food and dining|||138263
60|The Cliveden House Literary Festival 2018|51.558126|-0.690471|Berkshire|United Kingdom|SL6 0J|member_event||GBP||GBP|Art & Culture||The Cliveden House Literary Festival|138222
61|The Cake & Bake Show 2018 – Complimentary Tickets|51.508353|0.017696|London|United Kingdom|E16 1XL|member_event|32.000|GBP||GBP|Food and dining|||138313
62|Concierge takeover of Le Gavroche|51.511254|-0.157355|London|United Kingdom|W1K 7QR|member_event|250.000|GBP||GBP|Food and dining|||100430
63|The Lancaster Insurance Classic Motor Show Birmingham 2018 complimentary tickets|52.455562|-1.716811|Birmingham|United Kingdom|B40 1NT|member_event||GBP||GBP|Art & Culture||Classic Motor Show Birmingham|135809
64|A journey of flavour with Stem's fresh allotment produce|51.514612|-0.144951|London|United Kingdom|W1B 2LF|member_event|65.000|GBP||GBP|Drinks,Food and dining|253|Stem|137672
65|Exclusive wine cellar tour and three-course dinner with wine pairing at The Stafford London|51.505695|-0.142378|London|United Kingdom|SW1A 1NJ|member_event|120.000|GBP||GBP|Food and dining|||121480
66|GO! Organic Festival 2018 complimentary tickets|51.480385|-0.156552|London|United Kingdom|SW11 4NJ|complimentary_event||GBP||GBP|Food and dining|335|Go Organic|138231
68|Butchery masterclass and a three-course game feast paired with wine at The Jugged Hare|51.520940|-0.094405|London|United Kingdom|EC1Y 4SA|member_event|170.000|GBP||GBP|Food and dining||The Jugged Hare|126886
69|Affordable Art Fair Battersea 2018 autumn show - complimentary tickets|51.480501|-0.155966|London|United Kingdom|SW11 4NJ|complimentary_event|0.000|GBP||GBP|Fairs and shows|255||123808
70|Ceviche masterclass with dinner at Pachamama|51.517148|-0.153715|London|United Kingdom|W1U 3JY|member_event|60.000|GBP||GBP|Food and dining|253|Pachamama|126039
71|Eat & Drink Festival Christmas 2018 complimentary tickets|51.496500|-0.212876|Kensington|United Kingdom|W14 8UX|complimentary_event|0.000|GBP||GBP|Drinks,Food and dining||Eat & Drink Festival Christmas 2018|133410
73|Exclusive Marchesi Mazzei wine tasting at Flemings|51.506464|-0.147331|London|United Kingdom|W1J 7BH|member_event|70.000|GBP||GBP|Drinks,Food and dining||Marchesi Mazzei|121133
74|Exclusive sculpture workshop with Malgorzata Bany at The New Craftsmen|51.513304|-0.156404|London|United Kingdom|W1K 6DG|member_event|25.000|GBP||GBP|Art & Culture|253|The New Craftsman|138218
75|Exclusive Wagyu beef masterclass hosted by Great British Menu star Michael Reid at M Restaurant|1.497206|-0.141024|London|United Kingdom|SW1E 6SQ|member_event|160.000|GBP||GBP|Food and dining|253|M|110404
76|Expeditions changed my life – an audience with adventurer George Bullard at Hurley House|-34.002440|18.464461|Hurley|United Kingdom|SL6 5LH|member_event|70.000|GBP||GBP|Food and dining,Travel|||136424
77|H. Forman & Son: five-course lunch|51.539221|-0.023686|London|United Kingdom|E3 2NT|member_event|65.000|GBP||GBP|Food and dining|||136815
78|Four-course dinner at the launch of Sticks’n’Sushi in Chelsea|51.488593|-0.167797|London|United Kingdom|SW3 4NT|member_event|25.000|GBP||GBP|Food and dining|||138545
79|Grand Designs Live Birmingham complimentary tickets 2018|52.453255|-1.721006|Birmingham|United Kingdom|B40 1NT|complimentary_event|0.000|GBP||GBP|Home and garden||Grand Designs Live Birmingham|123740
80|The Althorp Literary Festival 2018 complimentary tickets|52.280195|1.004272|Northampton|United Kingdom|NN7 4HE|complimentary_event|0.000|GBP||GBP|Art & Culture||The Althorp Literary Festival 2018|138290
81|The Bridelux Atelier 2018 VIP complimentary tickets|51.501988|-0.158329|London|United Kingdom|SW1X 7RL|complimentary_event|0.000|GBP||GBP|Fashion, jewellery and accessories||The Bridelux Atelier 2018|136338
82|The Bridelux Atelier complimentary tickets|51.501988|-0.158329|London|United Kingdom|SW1X 7RL|complimentary_event|0.000|GBP||GBP|Fashion, jewellery and accessories||The Bridelux Atelier|
83|The Creative Craft Show London 2018 complimentary tickets|51.508460|0.027657|London|United Kingdom|E16 1XL|complimentary_event|0.000|GBP||GBP|Art & Culture||The Creative Craft Show London 2018|
84|Ideal Home Show Christmas 2018 complimentary tickets|51.508460|0.027657|London|United Kingdom|W14 8UX|complimentary_event|0.000|GBP||GBP|Home and garden|251|Ideal Home Show Christmas 2018|126891
85|Infinite Possibilities - Learn watercolour painting techniques with Laura Fishman at the 508 Gallery|51.481849|-0.183544|London|United Kingdom|SW10 0LD|member_event|0.000|GBP||GBP|Art and exhibitions||508 Gallery|135278
86|Sublime Society of Beef Steaks with Martell and Hawksmoor|51.515501|-0.093089|London|United Kingdom|EC2V 5BQ|member_event|110.000|GBP||GBP|Art & Culture|103,104,112,2,256,257,265,282,301|Hawksmoor Guildhall|100322
87|Learn how to invest in emerging contemporary art on this private art tour with Oaktree & Tiger|51.507516|-0.133140|London|United Kingdom|SW1Y 5BL|member_event|20.000|GBP||GBP|Art and exhibitions|253|Oaktree & Tiger|138337
88|South American pisco sour masterclass with adventure travel pioneers Explora|51.516464|-0.080149|London|United Kingdom|EC2M 4YD|member_event|25.000|GBP||GBP|Drinks,Food and dining||Explora|132369
89|Discover the flavours of Viet Lounge with a delicious cocktail and canapé pairing|51.511600|-0.134327|London|United Kingdom|W1D 6QT|member_event|25.000|GBP||GBP|Restaurant|||138455
90|The Gentleman’s Grooming Show 2018|51.520981|-0.072515|London|United Kingdom|E1 6QL|complimentary_event||GBP||GBP|Gifting|||138695
91|Duddell's Peking duck dinner & masterclass|51.504996|-0.090626|London|United Kingdom|SE1 9RY|member_event|95.000|GBP||GBP|Food and dining||Duddell's London|135980
92|Pied à Terre cookery masterclass and wine tasting|51.592372|-0.142929|London|United Kingdom|N10 1BS|member_event|25.000|GBP||GBP|Food and dining||Martin Moore|134403
93|An evening with Fabergé|51.510307|-0.142844|London|United Kingdom|W1S 4ET|member_event|15.000|GBP||GBP|Fashion, jewellery and accessories,Special events||Fabergé|132860
94|An evening of Indian food and wine with Gunpowder Tower Bridge|51.503521|-0.079431|London|United Kingdom|SE1 2SD|member_event|55.000|GBP||GBP|Food and dining,Indian||Gunpowder Tower Bridge|138658
95|Wine tasting at Cliveden House|51.558126|-0.688283|Taplow|United Kingdom|SL6 0JF|member_event|55.000|GBP||GBP|Food and dining||Cliveden House|118926
96|Foodies Festival Edinburgh Christmas 2018: complimentary tickets|55.946053|-3.212116|Edinburgh|United Kingdom|EH3 8EE|complimentary_event||GBP||GBP|Festivals||Foodies Festival Edinburgh|138652
97|Three Wine Men Cambridge Christmas Tasting: complimentary tickets|52.204348|0.117451|Cambridge|United Kingdom|CB2 3QB|complimentary_event||GBP||GBP|Festivals||Three Wine Men|138717
98|Artisan du Chocolat tasting|51.498840|-0.202193|London|United Kingdom|NW6 1LG|member_event|27.000|GBP||GBP|Food and dining||Artisan du Chocolat|120699
99|Foodies Festival Tatton Park Christmas 2018: complimentary tickets|53.329393|-2.382601|Knutsford|United Kingdom|WA16 6SG|complimentary_event||GBP||GBP|Festivals||Foodies Festival|138651
100|The New Craftsmen – A Masterclass in Alternative Diamonds with acclaimed jeweller Ruth Tomlinson|51.513304|-0.156405|London|United Kingdom|W1K 6DG|member_event|25.000|GBP||GBP|Fashion, jewellery and accessories||The New Craftsmen|
101|Enjoy a six-course tasting dinner with chef Vivek Singh at Cinnamon Kitchen|51.483295|-0.149259|London|United Kingdom|SW11 8AB|member_event|70.000|GBP||GBP|Food and dining,Indian||Cinnamon Kitchen|123320
102|An evening at the newly opened Homeplay Experience Centre|51.415997|-0.432592|Sunbury-on-Thames|United Kingdom|TW16 7EF|member_event|20.000|GBP||GBP|At home,Home and garden,Technology and gadgets|253,282|Homeplay Experience Centre|138678
103|Cliveden House Wine Tasting|51.545747|-0.687385|Taplow|United Kingdom|SL6 0JF|member_event|55.000|GBP||GBP|Food and dining|253|Cliveden House|
104|Dewar's Aberfeldy Distillery Scotch whisky day|56.623947|-3.853150|Aberfeldy|United Kingdom|PH15 2EB|member_event|230.000|GBP||GBP|Drinks,Food and dining||Dewar's Aberfeldy Distillery|137708
105|Aspinal of London Gifting Event|51.509091|-0.133629|London|United Kingdom|SW1Y 4PH|member_event|20.000|GBP||GBP|Fashion, jewellery and accessories|||122795
106|Celebrity chef pasta masterclass & paired wine dinner|51.503880|-0.150530|London|United Kingdom|W1J 7QY|member_event|135.000|GBP|135.000|GBP|Food and dining|103,104,112,2,256,257,265,282,301||119817
107|Make your own bauble in time for Christmas with London Glassblowing|51.501599|-0.152357|London|United Kingdom|SE1 3UD|member_event|90.000|GBP||GBP|Gifting,Home and garden||London Glassblowing|136172
108|Christmas gifting and cocktail demonstration at Mulberry Regent Street|51.510338|-0.137856|London|United Kingdom|W1B 5SR|member_event|25.000|GBP||GBP|Mulberry||Mulberry|101820
109|Olympia Horse Show: complimentary tickets|51.496500|-0.212876|London|United Kingdom|W14 8UX|complimentary_event|63.000|GBP||GBP|Complimentary,Sports||Olympia London|138767
110|The Telegraph Whisky Experience|51.506067|-0.193929|London|United Kingdom|SW1A 2EJ|complimentary_event||GBP||GBP|Food and dining|||135915
111|Natural History Museum Ice Rink: complimentary tickets|51.496715|-0.176367|London|United Kingdom|SW7 5BD|complimentary_event||GBP||GBP|Art & Culture,Child-friendly,Complimentary,Family||Natural History Museum|100967
112|World Championship of Ping Pong: complimentary tickets|51.594171|-0.130776|London|United Kingdom|N22 7AY|complimentary_event|18.000|GBP||GBP|Sports|103,104,112,256,257,282,301|Matchroom|138819
113|London: The Holiday and Travel Show|51.496625|-0.212698|London|United Kingdom|W14 8UX|complimentary_event||GBP||GBP|Travel||Clarion Events|101610
114|London Art Fair 2019: complimentary VIP Pass - Fully Booked|51.535496|-0.108136|London|United Kingdom|N1 0QH|complimentary_event||GBP||GBP|Art & Culture|||102325
115|London Art Fair 2019: complimentary Preview Pass|51.535496|-0.108136|London|United Kingdom|N1 0QH|complimentary_event|38.000|GBP||GBP|Art & Culture|||
116|London Art Fair: Private View complimentary tickets|51.535496|-0.108136|London|United Kingdom|N1 0QH|complimentary_event||GBP||GBP|Art & Culture|||
117|Manchester: The Holiday & Travel Show|53.465625|-2.341267|Manchester|United Kingdom|M17 8AS|complimentary_event|8.500|GBP||GBP|Travel|||
118|Chiltern Firehouse: an exclusive lunch|51.518653|-0.157054|London|United Kingdom|W1U 7PA|member_event|150.000|GBP||GBP|Food and dining||Chiltern Firehouse|122827
119|Kombucha masterclass & five-course dinner|51.497147|-0.141242|London|United Kingdom|SW1E 6SQ|member_event|80.000|GBP||GBP|Food and dining||M Restaurant|
120|Italian dinner & ‘drunken cheese’ tasting|51.508863|-0.145858|London|United Kingdom|W1J 8ED|member_event|75.000|GBP||GBP|Food and dining||Bocconcino|126877
121|The Kensington F45 Training Wellness Event|51.494639|-0.212131|London|United Kingdom|W14 0QH|member_event|15.000|GBP||GBP|Health & Fitness|||138849
122|Burns night five-course feast|51.499627|-0.156411|London|United Kingdom|SW1X 8LA|member_event|70.000|GBP||GBP|Food and dining||Cubitt House|101522
123|Hurley House: three-course dinner|51.534885|-0.791200|Hurley|United Arab Emirates|SL6 5LH|member_event|70.000|GBP||GBP|Food and dining||Hurley House Hotel|136423
124|Tortoise ThinkIn: How Gambling Won complimentary tickets|51.516815|-0.137637|London|United Kingdom|W1W 8DY|complimentary_event||GBP||GBP|Art & Culture||Tortoise Media|
125|Tortoise News ThinkIn: Modern Love|51.516815|-0.137637|London|United Kingdom|W1W 8DY|complimentary_event|0.000|GBP|0.000|GBP|Art & Culture||Tortoise Media|
126|Tortoise News ThinkIn: Open Editorial Discussion|51.516815|-0.137637|London|United Kingdom|W1W 8DY|complimentary_event||GBP||GBP|Art & Culture||Tortoise Media|
127|Taste 2019’s latest wines|51.507710|-0.026440|London|United Kingdom|E14 4AS|member_event|20.000|GBP||GBP|Food and dining||The Vino Beano|136462
129|Baking test event|2.438382|16.123456|London|United Arab Emirates||member_event|12.000|GBP||GBP||||
130|Pietra dura studio & jewellery showcase|52.119776|-1.118248|Towcester|United Kingdom|NN12 8PJ|member_event|65.000|GBP||GBP|Fashion, jewellery and accessories,Food and dining||Minka Gems|139118
131|Ideal Home Show 2020: complimentary tickets|51.496500|-0.210688|London|United Kingdom|W14 8UX|complimentary_event|22.000|GBP||GBP|Food and dining,Home and garden|111,112,242,256,257,282,301|Ideal Home Show|126891
132|Eat & Drink Festival London: complimentary tickets|51.496500|-0.210688|London|United Kingdom|W14 8UX|complimentary_event|14.000|GBP||GBP|Food and dining,Home and garden|103,104,112,2,256,257,278,282,301|Eat & Drink Festival London|
133|Love Wine Festival Guildford complimentary tickets|51.238668|-0.567092|Guildford|United Kingdom|GU1 3DA|complimentary_event|20.000|GBP|0.000|GBP|Food and dining|||139093
134|An evening with sculpture artist Eve Shepherd|51.481849|-0.183544|London|United Kingdom|SW10 0LD|member_event|10.000|GBP||GBP|Art & Culture||Farnon and Lake|0
135|Fabergé Valentine’s shopping evening|51.512359|-0.140601|London|United Kingdom|W1S 2HR|member_event|10.000|GBP|10.000|GBP|Gifting||Fabergé|132869
136|Race Retro: complimentary tickets|52.339328|-1.526087|Coventry|United Kingdom|CV8 2LZ|complimentary_event|22.000|GBP||GBP|Motor,Sports||Race Retro|136292
137|Craft Beer Rising 2019 complimentary tickets|51.520973|-0.072503|London|United Kingdom|E1 6QL|complimentary_event|33.600|GBP|0.000|GBP|Drinks,Food and dining||Craft Beer Rising|136407
138|Collect Fair, Exclusive Tour: complimentary tickets|51.490918|-0.158717|London|United Kingdom|SW3 4RY|complimentary_event|0.000|GBP|0.000|GBP|Art & Culture||Crafts Council|136367
139|Collect Fair, Collectors Preview: complimentary tickets|51.490918|-0.158717|London|United Kingdom|SW3 4RY|complimentary_event|0.000|GBP|0.000|GBP|Art and exhibitions||Crafts Council|137937
140|Collect Fair, Exclusive Preview: complimentary tickets|51.490918|-0.158717|London|United Kingdom|SW3 4RY|complimentary_event|0.000|GBP|0.000|GBP|Art and exhibitions||Crafts Council|137837
141|Vegan Life Live 2019 – complimentary tickets|51.594178|-0.130773|London|United Kingdom|N22 7AY|complimentary_event|12.000|GBP|12.000|GBP|Food and dining|||139129
142|Sabrage, cocktails, dinner and an oyster masterclass|55.949804|-3.207332|Edinburgh|United Kingdom|EH1 2AB|member_event|110.000|GBP||GBP|Food and dining|||111167
144|The Spring Knitting & Stitching Show: complimentary tickets|51.496500|-0.210688|London|United Kingdom|W14 8UX|complimentary_event|14.000|GBP||GBP|Art & Culture,Fashion, jewellery and accessories,Home and garden||Upper Street Events|136434
145|The Gin To My Tonic Show, Glasgow: complimentary tickets|55.860417|-4.289289|Glasgow|United Kingdom|G2 8YW|complimentary_event|15.000|GBP||GBP|Cooking,Drinks,Food and drink,Speakers|301||139202
146|Exclusive champagne tasting at St Pancras Brasserie & Champagne Bar by Searcys|51.530778|-0.127991|London|United Kingdom|N1C 4QL|member_event|55.000|GBP|55.000|GBP|Food and dining|||120391
147|Homebuilding & Renovating Show 2020: complimentary tickets|52.454242|-1.717015|Birmingham|United Kingdom|B40 1NT|complimentary_event|18.000|GBP|0.000|GBP|Home and garden|103,104,112,256,257,282,301||119121
148|Live Well London complimentary tickets|51.508805|-0.086225|London|United Kingdom|EC3R 6DX|complimentary_event|35.000|GBP||GBP|Family,Food and dining,Health & Fitness,Sports||Lime Events Group|139200
149|Private View Affordable Art Fair London Hampstead: complimentary tickets|51.560829|-0.163170|London|United Kingdom|NW3 1TH|complimentary_event|25.000|GBP|0.000|GBP|Art & Culture|112,2,256,257,265,282,301||139224
150|BADA 2019: exclusive guided tour with one of London’s leading art advisors|51.491455|-0.158820|London|United Kingdom|SW3 4LY|member_event|10.000|GBP||GBP|Art & Culture||BADA Antiques & Fine Art Fair|106652
151|BADA Fair 2019: complimentary tickets|51.491455|-0.158820|London|United Kingdom|SW3 4LY|complimentary_event|20.000|GBP||GBP|Art & Culture,Home and garden||BADA Antiques & Fine Art Fair|126782
152|Private View at BADA 2019: complimentary tickets|51.491455|-0.158820|London|United Kingdom|SW3 4LY|complimentary_event||GBP||GBP|Art & Culture,Fashion, jewellery and accessories||BADA|139231
153|Late View/General Access Affordable Art Fair London Hampstead: complimentary tickets|51.560883|-0.155959|London|United Kingdom|NW3 1TH|complimentary_event|20.000|GBP|0.000|GBP|Art & Culture|112,2,256,257,282,301||139234
156|BADA 2019: exclusive guided tour with one of London’s leading art advisors [test]|51.491455|-0.158820|London|United Kingdom|SW3 4LY|member_event|10.000|GBP||GBP|||BADA Antiques & Fine Art Fair|
157|Country Living Spring Fair|51.594190|-0.130776|London|United Kingdom|N22 7AY|complimentary_event|16.000|GBP||GBP|Home and garden|||
158|Bridelux Atelier: complimentary tickets|51.510149|-0.120521|London|United Kingdom|WC2R 0EZ|complimentary_event|45.000|GBP|0.000|GBP|Fashion,For her,Womenswear|112,256,257,301||136338
159|The London Bike Show & Triathlon Show: complimentary tickets|51.508460|0.029846|London|United Kingdom|E16 1XL|complimentary_event|16.000|GBP||GBP|Sports|112,256,278|Newtimber Media|139197
160|Private dinner at Mãos with top chef Nuno Mendes|51.524535|-0.075299|London|United Kingdom|E2 7JB|member_event|265.000|GBP|265.000|GBP|Food and dining||Mãos|139263
161|Junipalooza London: complimentary tickets|51.508176|-0.059571|London|United Kingdom|E1W 2SF|complimentary_event|30.000|GBP||GBP|Drinks,Food and dining|103,104,112,256,257,282,301|The Gin Foundry|136559
162|Grand Designs Live: complimentary tickets|51.508463|0.027657|London|United Kingdom|E16 1XL|complimentary_event|15.000|GBP||GBP|Home and garden|103,104,112,2,256,257,265,282,301|Media Ten|139275
163|[TEST] Taste of New York 2019 - complimentary tickets|40.741181|-73.993195|New York|United States||complimentary_event||GBP||GBP|Food and dining|267|Taste|
166|[TEST] The Cake & Bake Show 2019|41.882552|-87.622551|Chicago|United States||complimentary_event|25.000|CAD|10.000|CAD|Food and dining||Cake & Bake|120021
167|Veuve Clicquot sabrage at Smith & Wollensky|51.509451|-0.122162|London|United Kingdom||member_event|65.000|GBP|0.000|GBP|Food and dining|||139307
168|ワンテイスト付き、勝沼ワイナリーツアー|35.656146|138.715793|Koshu|Japan||member_event|30.000|JPY||GBP||||
169|[TEST] Katsunuma wine tour and tasting|35.656146|138.715793|Koshu|Japan||member_event|30.000|JPY||GBP|Food and dining|252||
170|[TEST] Member exclusive: VIP feasting and curated cocktail evening at Joel Robuchon Restaurant|35.651029|139.713893|Tokyo|Japan||member_event|50.000|JPY||GBP|Food and dining|252||
171|[TEST] Taste of Japan 2019 - complimentary tickets|35.060986|135.783354|Kyoto|Japan||complimentary_event||GBP||GBP|Food and dining,What's on|252||
172|[TEST] The Cake & Bake Show Tokyo 2019|35.676097|139.768709|Tokyo|Japan||complimentary_event||GBP||GBP|Food and dining|252||
173|Charlotte Tilbury product launch|51.513034|-0.123792|London|United Kingdom|WC2E 8BT|member_event|40.000|GBP||GBP|Cosmetics & Fragrances,Fashion, jewellery and accessories||Charlotte Tilbury|135608
174|Travel Geeks, Vietnam: complimentary tickets|51.522614|-0.105423|London|United Kingdom|EC1R 0DP|complimentary_event|10.000|GBP|10.000|GBP|Travel|103,104,112,2,256,257,301||139257
175|Travel Geeks, Australia: complimentary tickets|51.522614|-0.105423|London|United Kingdom|EC1R 0DP|complimentary_event|10.000|GBP|10.000|GBP|Travel|103,104,112,2,256,257,278,301||139315
176|Travel Geeks, China: London – complimentary tickets|51.522614|-0.105423|London|United Kingdom|EC1R 0DP|complimentary_event|10.000|GBP|10.000|GBP|Travel|||139313
177|Travel Geeks, China: Cambridge – complimentary tickets|52.213582|0.098348|Cambridge|United Kingdom|CB3 0DE|complimentary_event|10.000|GBP|10.000|GBP|Travel|103,104,112,2,256,257,282,301||139311
178|National Geographic Traveller Food Festival: complimentary tickets|51.535596|-0.105010|London|United Kingdom|N1 0QH|complimentary_event|22.000|GBP|22.000|GBP|Travel|103,104,112,2,253,256,257,265,282,301||139314
179|Affordable Art Fair Hong Kong: complimentary tickets|22.283219|114.173103|Hong Kong|Hong Kong SAR|999077|complimentary_event|20.000|GBP||GBP|Art & Culture|151|Affordable Art Fair|139317
180|Travel Geeks, China: Brighton – complimentary tickets|50.820645|-0.146490|Brighton|United Kingdom|BN1 1NA|complimentary_event|10.000|GBP|10.000|GBP|Travel|103,104,112,2,256,257,282,301||139312
181|Enjoy an after-hours private tour of the V&A Museum’s Christian Dior: Designer of Dreams exhibition|51.496639|-0.172180|London|United Kingdom|SW7 2RL|member_event|20.000|GBP||GBP|Art & Culture,Fashion, jewellery and accessories|112,278|Dior|132859
183|Floral workshop at Hayford & Rhodes|51.500319|-0.082917|London|United Kingdom|SE1 3HB|member_event|45.000|GBP||GBP|Family,Gifting,Home and garden|112,2,256,257,278,301|Hayford & Rhodes|136709
184|London Concours: complimentary tickets|51.522946|-0.088385|London|United Kingdom|EC1Y 2BQ|complimentary_event|35.000|GBP||GBP|Family,Motor,Sports|112,2,256,257,265,282,301|Thorough Events|136844
185|Bombay Sapphire Distillery: hosted tour and masterclass|51.234873|-1.296061|Whitchurch|United Kingdom|RG28 7NR|member_event|55.000|GBP||GBP|Drinks,Food and dining|103,104,112,2,256,257,301|Bombay Sapphire Distillery|134306
186|Mark’s Kitchen Library: talks & tastings from the Somerset Cider Brandy Company|51.525979|-0.081590|London|United Kingdom|EC2A 3LX|member_event|50.000|GBP||GBP|Drinks,Food and dining|103,104,112,2,256,257,282,301|Tramshed|101422
187|Travel Geeks, Adventures in New Zealand: complimentary tickets|51.522614|-0.105423|London|United Kingdom|EC1R 0DP|complimentary_event|10.000|GBP|10.000|GBP|Travel|103,104,112,2,256,257,301||139558
188|DogFest: complimentary tickets|51.872799|-0.214778|Stevenage|United Kingdom|SG1 2AX|complimentary_event|16.500|GBP|10.500|GBP|Family|103,112,2,256,257,265,282,301||139557
189|Bar Boulud wine dinner with Daniel Boulud and Sir Peter Michael|51.502032|-0.160245|London|United Kingdom|SW1X 7LA|member_event|100.000|GBP||GBP|Drinks,Food and dining|||
190|The Science of Plastics patrons’ lecture: complimentary tickets|51.497809|-0.176712|London|United Kingdom|SW7 5HD|complimentary_event|0.000|GBP|0.000|GBP|Art & Culture|103,112,2,256,257,282,301||139560
191|Easter baking and chocolate making masterclass at The Woodspeen|51.415602|-1.353966|Newbury|United Kingdom|RG20 8BN|member_event|120.000|GBP|120.000|GBP|Food and dining|103,104,112,2,256,257,282,301||129888
192|Fabergé Easter shopping evening with Sarah Fabergé and launch of a new collaboration|51.512359|-0.140601|London|United Kingdom|W1S 2HR|member_event|15.000|GBP|15.000|GBP|Fashion, jewellery and accessories,Gifting|103,104,112,2,256,257,282,301||139567
193|Pierre Hermé Macaron Tasting at Linley|51.490344|-0.154255|London|United Kingdom|SW1W 8LP|member_event|30.000|GBP|0.000|GBP|Art & Culture|103,112,2,256,257,282,301||136472
194|Hands-on couture: fascinator workshop at Sahar Millinery|51.509456|-0.131187|London|United Kingdom|WC2H 7DT|member_event|80.000|GBP|0.000|GBP|Art & Culture,Fashion, jewellery and accessories|103,112,2,256,257,282,301||139578
195|Exclusive Spring menu: Baa-rolo evening at Boxcar Butcher & Grill in Marylebone|51.515045|-0.158410|London|United Kingdom|W1H 7SD|member_event|70.000|GBP||GBP|Food and dining|103,104,112,2,256,257,282,301|Boxcar Butcher & Grill|136614
196|Ideal Home Show Glasgow: complimentary tickets|55.861224|-4.288927|Glasgow|United Kingdom|G3 8YW|complimentary_event|13.000|GBP||GBP|Art & Culture,Food and dining,Home and garden,Technology and gadgets,Wellbeing|103,104,112,2,256,257,301|Media Ten|
197|The ultimate Beef Feast at Hawksmoor Manchester|53.478945|-2.249325|Manchester|United Kingdom|M3 3WB|member_event|95.000|GBP|0.000|GBP|Food and dining|103,112,2,256,257,282,301||126755
198|FesTeaVal 2019: complimentary tickets|51.508176|-0.059571|London|United Kingdom|E1W 2SF|complimentary_event|15.000|GBP||GBP|Drinks,Family,Food and dining|103,104,112,2,256,257,282,301|National Tea Day|139575
199|Vintage jewellery showcase: collecting & investing with Knightsbridge Rocks|51.496033|-0.168609|London|United Kingdom|SW3 2DB|member_event|15.000|GBP||GBP|Fashion, jewellery and accessories|103,104,112,2,256,257,265,282,301|Knightsbridge Rocks|139591
200|The New Craftsmen: exclusive London Craft Week preview with Charlotte Kingsnorth|51.513304|-0.154216|London|United Kingdom|W1K 6DG|member_event|20.000|GBP||GBP|Art & Culture,Home and garden|103,104,112,2,256,257,265,282,301|The New Craftsmen|
201|Althorp Food & Drink Festival 2019: complimentary tickets|52.280195|-1.002084|Northampton|United Kingdom|NN7 4HQ|complimentary_event|10.000|GBP||GBP|Drinks,Family,Food and dining|2|Althorp|139597
202|Test123|51.522614|-0.105423|London|United Kingdom|EC1R 0DP|member_event|100.000|SEK|100.000|SEK||||139316
203|Indulge in a premium Pierre Hermé Paris macaron & chocolate tasting|51.498755|-0.157285|London|United Kingdom|SW1X 9EX|member_event|40.000|GBP||GBP|Food and dining|103,104,112,2,256,257,265,301|Pierre Hermé|111170
204|This Morning Live 2019: complimentary tickets|52.454243|-1.717015|Birmingham|United Kingdom|B40 1NT|complimentary_event|27.500|GBP||GBP|Cosmetics & Fragrances,Drinks,Family,Fashion, jewellery and accessories,Food and dining,Health & Fitness,Home and garden,Technology and gadgets|103,104,112,2,256,257,282,301|Media Ten|136681
205|Truffle-making masterclass with My Chocolate|51.537279|-0.086869|London|United Kingdom|N1 5PH|member_event|35.000|GBP||GBP|Food and dining|103,104,112,2,256,257,282,301|MyChocolate|139664
206|Gunpowder Tower Bridge|51.503621|-0.077113|London|United Kingdom|SE1 2SD|member_event|75.000|GBP|0.000|GBP|Food and dining|103,112,2,256,257,301||139689
207|Seafood Feast Sunday Brunch at Gunpowder|51.503621|-0.077113|London|United Kingdom|SE1 2SD|member_event|75.000|GBP|0.000|GBP|Food and dining|103,112,2,256,257,282,301||139685
209|Ooty Marylebone: enjoy a hands-on dosa masterclass|51.519215|-0.156038|London|United Kingdom|W1U 7DJ|member_event|50.000|GBP|0.000|GBP|Food and dining|103,112,2,256,257,265,282,301||139192
210|Searcy’s: sparkling wine and Champagne tasting|51.530530|-0.126100|London|United Kingdom|N1C 4QL|member_event|55.000|GBP|0.000|GBP|Food and dining|103,112,2,242,256,257,265,282,301||139734
211|Draw Art Fair London: complimentary tickets|51.490697|-0.158716|London|United Kingdom|SW3 4RY|complimentary_event|80.000|GBP|80.000|GBP|Art & Culture|103,104,112,2,256,257,282,301||139722
212|Foodies Festival Syon Park: complimentary tickets|51.478228|-0.315190|London|United Kingdom|TW8 8JF|complimentary_event|19.000|GBP|19.000|GBP|Food and dining|103,104,112,2,242,256,257,282,301||134458
213|Foodies Festival Brighton: complimentary tickets|50.823513|-0.173323|Brighton|United Kingdom|BN3 2WN|complimentary_event|19.000|GBP|19.000|GBP|Food and dining|103,104,112,2,256,257,265,282,301||139791
214|Foodies Festival Bristol: complimentary tickets|51.470913|-2.627013|Bristol|United Kingdom|BS9 1FG|complimentary_event|19.000|GBP|19.000|GBP|Food and dining|103,104,112,2,256,257,265,282,301||139790
215|Exclusive showcase & introduction to ‘The Wardrobe’ by Spencer Hart|51.524008|-0.206290|London|United Kingdom|W10 5PE|member_event|15.000|GBP||GBP|Fashion, jewellery and accessories|103,104,112,2,256,257,282,301|Spencer Hart|139788
216|Taste of London 2019: complimentary tickets|51.528713|-0.151318|London|United Kingdom|NW1 4NR|complimentary_event|20.000|GBP||GBP|Drinks,Food and dining|103,104,2,256,257,265,282,301|Taste of London|139751
217|Stella Live: complimentary tickets|51.490700|-0.158726|London|United Kingdom|SW3 4RY|complimentary_event|50.000|GBP|0.000|GBP|Cosmetics & Fragrances,Fashion, jewellery and accessories,Health & Fitness|103,112,2,256,257,265,282,301||139815
218|Face mask masterclass with Fresh beauty|51.519970|-0.154293|London|United Kingdom|W1U 4RD|member_event|20.000|GBP|20.000|GBP|Cosmetics & Fragrances,Gifting|103,104,112,2,256,257,282,301||137908
219|Affordable Art Fair: complimentary tickets|51.560883|-0.155959|London|United Kingdom|NW3 1TH|member_event|20.000|GBP||GBP|Art & Culture|2,385||136592
220|Test|0.000000|1.000000|test|Åland Islands||member_event||GBP||GBP||2,301||
221|Moët Hennessy: Champagne icons tasting|||London|United Kingdom|SW1W 0DH|member_event|155.000|GBP||GBP|Business,Drinks,Gifting|111,168,242|Moët Hennessy|117097
222|Exclusive modern Latin American-inspired six-course dinner with wine pairing at Zuaya|51.502137|-0.190954|London|United Kingdom|W85EB|member_event|70.000|GBP|70.000|GBP|Food and dining|103,104,112,2,256,257,282,301||139835
223|House & Garden festival: complimentary tickets|51.496500|-0.210688|London|United Kingdom|W14 8UX|complimentary_event|20.000|GBP|20.000|GBP|Home and garden|103,104,112,2,256,257,282,301||134609
224|The Baby Show: complimentary tickets|52.454236|-1.717000|Birmingham|United Kingdom|B40 1NT|complimentary_event|0.000|GBP|0.000|GBP|Family|103,112,2,256,257,301||139850
225|Father’s Day whisky & cigar evening at Mr Fogg’s Residence in Mayfair|51.509829|-0.144135|London|United Kingdom|W1J 6JD|member_event|40.000|GBP||GBP|Food and dining|103,104,112,2,256,257,282,301|Mr Fogg's Residence|119971
226|An illuminating evening with Homeplay|51.416000|-0.430405|London|United Kingdom|TW16 7EF|member_event|10.000|GBP||GBP|Home and garden|112,2,256,257,265,282,301||101520
227|Timothy Oulton: The Collector’s Salon showcase|51.484991|-0.175471|London|United Kingdom|SW3 5UU|member_event|15.000|GBP||GBP|Home and garden|103,104,112,2,256,257,282,301|Timothy Oulton|139937
228|SpeedMachine: complimentary tickets|52.073300|-1.014663|Northamptonshire|United Kingdom|NN12 8TN|complimentary_event|45.000|GBP|45.000|GBP|Family,Food and dining,Motor|103,104,112,2,242,256,257,282,301||136850
229|Arroz Negro black rice masterclass at Spanish icon Camino|51.506292|-0.099424|London|United Kingdom|SE1 9AN|member_event|35.000|GBP||GBP|Food and dining|103,104,112,2,256,257,282,301|Camino Restaurant Group|136474
230|The Wine Gang London Summer Festival: complimentary tickets|51.522946|-0.088385|London|United Kingdom|EC1Y 2BQ|complimentary_event|20.000|GBP|0.000|GBP|Art & Culture,Drinks,Food and dining|103,104,112,2,256,257,282,301|The Wine Gang|140007
231|The Great British Beer Festival: complimentary tickets|51.496500|-0.210688|London|United Kingdom|W14 8UX|complimentary_event|14.000|GBP||GBP|Drinks,Food and dining|112,2,256,257,301,309|The Great British Beer Festival|135126
232|British Beach Polo Championships: complimentary tickets|50.688565|-1.937407|Poole|United Kingdom|BH13 7QQ|complimentary_event|30.000|GBP|30.000|GBP|Art & Culture|103,104,112,2,256,257,282,301||137357
233|Foodies Festival Birmingham: complimentary tickets|52.451507|-1.902625|Birmingham|United Kingdom|B29 7EN|complimentary_event|19.000|GBP||GBP|Drinks,Food and dining|103,104,112,2,256,257,282,301|Foodies Festival|
234|Foodies Festival Cambridge: complimentary tickets|52.202071|0.128239|Cambridge|United Kingdom|CB1 1NA|complimentary_event|19.000|GBP||GBP|Drinks,Food and dining|103,104,112,2,256,257,282,301|Foodies Festival|
235|BBC Good Food Show Birmingham: complimentary tickets|52.455539|-1.716900|Birmingham|United Kingdom|B40 1NT|complimentary_event|20.000|GBP||GBP|Drinks,Food and dining|103,104,112,2,256,257,282,301|River Street Events|134773
236|BBC Gardeners’ World Live: complimentary tickets|52.455539|-1.716900|Birmingham|United Kingdom|B40 1NT|complimentary_event|20.000|GBP||GBP|Home and garden|103,104,112,2,256,257,282,301|River Street Events|140067
238|Luxury Wagyu tasting menu with a wine flight at M Restaurant Victoria|51.497147|-0.139053|London|United Kingdom|SW1E 6SQ|member_event|165.000|GBP||GBP|Food and dining|103,104,112,2,256,257,282,301||
239|Behind the scenes with Watches of Switzerland and Zenith|51.511615|-0.141793|London|United Kingdom|W1B 4AD|member_event|15.000|GBP|15.000|GBP|Fashion, jewellery and accessories,Gifting|103,104,112,2,256,257,282,301||119139
240|Silverstone Classic 2019: complimentary tickets|52.073301|-1.014663|Towcester|United Kingdom|NN12 8TN|complimentary_event|45.000|GBP||GBP|Family,Gifting,Motor,Sports|103,104,112,2,256,257,282,301|Classic Historic Racing Limited|135017
241|A dog's life: complimentary tickets to DogFest Cheshire|53.329380|-2.382569|Knutsford|United Kingdom|WA16 6SG|complimentary_event|21.400|GBP||GBP|Family|103,111,112,168,246,256,257,313,326,389||139557
242|The Whisky Event: complimentary tickets|51.509737|-0.154808|London|United Kingdom|W1K 7TN|complimentary_event|100.000|GBP||GBP|Drinks|103,104,112,2,256,257,301|The Whisky World|140130
243|Taste of London 2019: complimentary tickets|51.528713|-0.151318|London|United Kingdom|NW1 4NR|complimentary_event|23.000|GBP||GBP|Food and dining|112|Taste of London|
244|Foodies Festival Tatton Park: complimentary tickets|53.329394|-2.382602|Cheshire|United Kingdom|WA16 6SG|complimentary_event|19.000|GBP|0.000|GBP|Food and dining|103,112,256,257,282,301||140187
245|Marvel Universe LIVE! complimentary tickets|51.503038|0.003154|London|United Kingdom|SE10 0DX|complimentary_event|41.500|GBP|41.500|GBP|Art & Culture,Technology and gadgets|112|MARVEL|140212
246|The Gin To My Tonic Show Cardiff: complimentary tickets|51.478893|-3.171705|Cardiff|United Kingdom|CF10 2EQ|complimentary_event|15.000|GBP|15.000|GBP|Drinks,Food and dining|103,104,112,2,256,257,282,301||140225
247|Test|-0.000001|0.000001|E1|United Kingdom|E11GW|member_event|10.000|GBP||GBP||283|test|
248|Glenmorangie whisky tasting|51.512993|-0.143537|London|United Kingdom|W1S 1FH|member_event|85.000|GBP||GBP|Food and dining|282||117097
249|Bentley Test Drive and Yacht Cruise Experience|50.357787|-3.577359|Dartmouth|United Kingdom|TQ6 9PH|complimentary_event|0.000|GBP|0.000|GBP|Motor,Travel|112||140265
250|The Other Art Fair Private View 2019: complimentary tickets|51.535961|-0.123728|London|United Kingdom|N1C 4BZ|complimentary_event|25.000|GBP|25.000|GBP|Art & Culture|103,104,112,2,256,257,282,301||129763
251|Family screen-printing workshop with artist Ann-Marie James at Lyndsey Ingram’s gallery|51.511158|-0.147467|London|United Kingdom|W1K 3PL|member_event|15.000|GBP|10.000|GBP|Art & Culture,Family|103,104,112,2,256,257,282|Lyndsey Ingram|140294
252|Private screening of Mary Poppins Returns at Bluebird Chelsea|51.484991|-0.175471|London|United Kingdom|London|member_event|40.000|GBP|30.000|GBP|Family|103,104,112,2,256,257,282,301||121364
253|Children’s movie trailer making masterclass and breakfast at The Curtain|51.523652|-0.080651|London|United Kingdom|EC2A 4PJ|member_event|15.000|GBP|15.000|GBP|Family,Hotels|168,242|Young Film Academy|134361
254|The Great British Beer Festival 2019 - complimentary tickets|51.496500|-0.210688|London|United Kingdom|W14 8UX|complimentary_event|14.000|GBP|0.000|GBP|Drinks,Food and dining|111,168,242|The Great British Beer Festival|135126
255|Silverstone Classic 2019: complimentary tickets|52.073301|-1.014663|Towcester|United Kingdom|NN12 8TN|complimentary_event|0.000|GBP|0.000|GBP|Family,Motor,Sports|111,168,242||135017
256|Exclusive London Art Week: complimentary tour|51.508967|-0.140693|London|United Kingdom|W1S 4AX|complimentary_event|0.000|GBP||GBP|Art & Culture|112,2,282||137588
257|London Brunch Fest 2019: complimentary tickets|51.520889|-0.072507|London|United Kingdom|E1 6QR|complimentary_event|12.500|GBP|12.500|GBP|Food and dining|103,104,112,2,256,257,282,309||137806
258|Affordable Art Fair Hong Kong: complimentary tickets (HSBC)|22.283219|114.173103|香港|Hong Kong SAR||complimentary_event|57.000|HKD||GBP|Art & Culture|244,245|Affordable Art Fair|
259|Art & Antiques for Everyone: complimentary tickets|||Global|United Kingdom||complimentary_event|0.000|GBP|0.000|GBP|Art & Culture,Virtual events|112,2,256,257,265,354||140363
260|The Gin Experience: complimentary tickets|51.466780|-0.201349|London|United Kingdom|SW6 3PR|complimentary_event|70.000|GBP||GBP|Food and dining|103,112,2,256,257,282,309||101466
261|Foodies Festival Edinburgh: complimentary tickets|55.964519|-3.215172|Edinburgh|United Kingdom|EH3 5NZ|complimentary_event|19.000|GBP||GBP|Food and dining|103,104,111,112,168,2,242,256,257,282,301,309|Foodies Festival|134458
262|Theatre in the Clouds & dinner at Ting restaurant at the Shangri-La Hotel, At The Shard, London|51.504391|-0.086785|London|United Kingdom|SE1 9QU|member_event|145.000|GBP||GBP|Food and dining|103,104,112,2,256,257,282,309|Shangri-La Hotel, At The Shard, London|123232
263|Foodies Festival Oxford: complimentary tickets|51.751358|-1.231211|Oxford|United Kingdom|OX3 0EB|complimentary_event|19.000|GBP||GBP|Food and dining|103,104,111,112,168,2,242,256,257,301,309|Foodies Festival|134458
264|Gin & Rum Festival, Leicester: complimentary tickets|52.635308|-1.126873|Leicester|United Kingdom|LE1 1QD|complimentary_event|12.000|GBP||GBP||103,104,112,2,256,257,282,301||140462
265|LAPADA Art & Antiques Fair: Collectors' Preview|51.509674|-0.146144|London|United Kingdom|W1J 5AW|complimentary_event|65.000|GBP||GBP|Art & Culture,Fashion, jewellery and accessories|112,282,301,309||124242
266|this is a test|||Hong Kong|Hong Kong SAR||member_event|100.000|HKD||GBP||244,245||
267|Gin & Rum Festival, Bath: complimentary tickets|51.381174|-2.353673|Bath|United Kingdom|BA2 4EU|complimentary_event|0.000|GBP||GBP|Drinks,Food and dining|103,104,112,2,256,257,282,301,309||140462
268|Summer dinner party at The Drop Wine Bar|51.535748|-0.127138|London|United Kingdom|N1C 4DH|member_event|70.000|GBP||GBP|Drinks,Food and dining|103,104,112,2,246,256,257,282,301,309|The Drop Wine Bar|140502
270|BBC Countryfile Live Blenheim Palace: complimentary tickets|51.841365|-1.360962|Oxford|United Kingdom|OX20 1PS|complimentary_event|31.900|GBP|15.950|GBP|Family,Home and garden|2|SME London|101609
271|LAPADA Art & Antiques Fair: complimentary tickets|51.509422|-0.146290|London|United Kingdom|W1J 5AW|complimentary_event|20.000|GBP||GBP|Art & Culture,Home and garden|103,112,256,257,282,301,309|LAPADA|124242
273|Bombay Sapphire Distillery Hosted Tour and Masterclass|51.234872|-1.296053|Whitchurch|United Kingdom|RG28 7NR|member_event|55.000|GBP||GBP|Home and garden|103,112,256,257,282,301,309|Bombay Sapphire|134306
274|Exclusive pasta making masterclass and wine-paired lunch at Luca|51.522254|-0.101846|London|United Kingdom|EC1M 4EH|member_event|100.000|GBP||GBP|Food and dining|103,104,112,256,257,282,301,309||132954
275|Gin & Rum Festival, London: complimentary tickets|51.483103|-0.113970|London|United Kingdom|SE11 5SS|complimentary_event|0.000|GBP||GBP|Drinks,Food and dining|112,2,256,257,282,301,309||140462
276|Jewel Changi Airport Canopy Park: Complimentary tickets|1.360134|103.989719|Singapore|Singapore|819666|complimentary_event|0.000|HKD||GBP|Family|155||140495
277|[Fully booked] Wow dinner series: an evening with Infinity|22.283361|114.152063|Hong Kong|Hong Kong SAR||member_event|1416.000|HKD||GBP|Food and dining|245||140504
278|Miele: Dialog oven exclusive preview and cooking demo|22.277685|114.185759|Hong Kong|Hong Kong SAR||complimentary_event|0.000|HKD||GBP|Home and garden|151,152,153,244,245||140371
279|THANN: aroma gel workshop|1.303875|103.833604|Singapore|Singapore|238859|complimentary_event|0.000|SGD||GBP|Cosmetics & Fragrances|245,265||140151
280|Pridelux Atelier: complimentary tickets|51.504391|-0.086785|London|United Kingdom|SE1 9QU|complimentary_event|45.000|GBP||GBP|Fashion, jewellery and accessories,Food and dining|112,2,282,301||136338
281|Gin & Rum Festival, Harrogate: complimentary tickets|53.996977|-1.540913|Harrogate|United Kingdom|HG1 5LA|complimentary_event|0.000|GBP||GBP|Drinks,Food and dining|112,2,256,257,282,301,309||140462
282|BBC Countryfile Live, Castle Howard: complimentary tickets|54.121803|-0.906128|York|United Kingdom|YO60 7DA|complimentary_event|27.500|GBP|27.500|GBP|Food and dining,Home and garden|103,104,112,256,257,282,301,309||101609
283|Gin & Rum Festival, Bournemouth: complimentary tickets|50.717686|-1.874985|Bournemouth|United Kingdom|BH2 5BH|complimentary_event|0.000|GBP||GBP|Drinks,Food and dining|112,2,256,257,282,301,309||140462
284|Grand Designs Live: complimentary tickets|52.455524|-1.714737|Birmingham|United Kingdom|B40 1NT|complimentary_event|12.000|GBP||GBP|Art & Culture,Home and garden|103,112,256,257,282,301,309||123740
285|Fashion in art: life drawing workshop with Sahar Freemantle and artist Layla Mohamed|51.509475|-0.131131|London|United Kingdom|WC2H 7DT|member_event|35.000|GBP||GBP|Art & Culture,Fashion, jewellery and accessories|112,2,256,257,282,301,309||139578
286|A World of Wine – a rugby-themed international wine tasting|51.473716|-0.203595|London|United Kingdom|SW6 4TJ|member_event|85.000|GBP||GBP||112,2,256,257,282,301,309||120836
287|The Gin To My Tonic Liverpool: complimentary tickets|53.395240|-2.990126|Liverpool|United Kingdom|L3 4FP|complimentary_event|15.000|GBP||GBP|Food and dining|112,256,257,282,301|Paul Hudson-Jones|139202
288|Cookery masterclass with Michel Roux Jr at Sauce by The Langham|51.517589|-0.146064|London|United Kingdom|W1B 1JA|member_event|675.000|GBP||GBP|Food and dining|103,104,112,255,256,257,282,301,309|The Langham|116162
289|Monica Vinader: Jewellery Styling Workshop|1.304248|103.831495|Singapore|Singapore|238801|complimentary_event|0.000|SGD||GBP|Fashion, jewellery and accessories|155||140541
290|Affordable Art Fair Late View: complimentary tickets|51.480501|-0.155966|London|United Kingdom|SW8 4NW|complimentary_event|22.000|GBP||GBP|Art & Culture|112,2,256,257,282,301|Affordable Art Fair|123808
291|Affordable Art Fair Singapore: Complimentary Tickets|1.291244|103.863927|Singapore|Singapore|038795|complimentary_event|100.000|SGD||GBP|Art and exhibitions,Art & Culture|155||140536
292|Manchester Art Fair VIP preview: complimentary tickets|53.476556|-2.246431|Manchester|United Kingdom|M2 3GX|complimentary_event|15.000|GBP||GBP|Art & Culture|112,256,257,282,301|Holden Media|140518
293|Gin & Rum Festival, Reading: complimentary tickets|51.450560|-0.964173|Reading|United Kingdom|RG1 5AQ|complimentary_event|0.000|GBP||GBP|Drinks,Food and dining|112,2,256,257,282,301||140462
294|A taste of Arros: four-course dinner at Arros QD|51.516733|-0.136871|London|United Kingdom|W1W 8NQ|member_event|145.000|GBP||GBP|Food and dining|112,2,256,257,282,301||140188
295|The Cake & Bake Show 2019: complimentary tickets|51.508460|0.029846|London|United Kingdom|E16 1XL|complimentary_event|0.000|GBP||GBP|Food and dining|112,2,256,257,282,301||138313
296|Affordable Art Fair Private View & General Admission: complimentary tickets|51.480501|-0.155966|London|United Kingdom|SW8 4NW|complimentary_event|0.000|GBP||GBP|Art & Culture|112,2,256,257,282,301||123808
297|100% Design: complimentary tickets|51.496500|-0.210688|London|United Kingdom|W14 8UX|complimentary_event|0.000|GBP||GBP|Art & Culture|2||135332
298|Exclusive concierge takeover of Le Gavroche hosted by chef Michel Roux Jr|51.511254|-0.157355|London|United Kingdom|W1K 7QR|member_event|265.000|GBP||GBP|Food and dining|112,2,256,257,282,301||100430
299|The Gin To My Tonic Liverpool: complimentary tickets|53.395240|-2.990126|Liverpool|United Kingdom|L3 4FP|complimentary_event|15.000|GBP||GBP|Drinks,Food and dining|111,242|Paul Hudson-Jones|139202
300|Tower of London Food Festival, preview evening: complimentary tickets|51.508112|-0.075949|London|United Kingdom|EC3N 4AB|complimentary_event|5.000|GBP|5.000|GBP|Food and dining|112,256,257,282,301|River Street Events|140679
301|Concours of Elegance: complimentary tickets|51.403598|-0.337760|Surrey|United Kingdom|KT8 9AU|complimentary_event|60.000|GBP||GBP|Motor|112,256,257,282,301|Thorough Events|135325
302|WineFest South Africa: complimentary tickets|51.522377|-0.082107|London|United Kingdom|EC2A 2BF|complimentary_event|24.580|GBP||GBP|Food and dining|112,257,282,301|Wines of South Africa|140677
303|Concours of Elegance: complimentary tickets|51.403598|-0.337760|Surrey|United Kingdom|KT8 9AU|complimentary_event|60.000|GBP||GBP|Motor|111|Thorough Events|135325
304|VegfestUK: complimentary tickets|51.496501|-0.210688|London|United Kingdom|W14 8UX|complimentary_event|13.200|GBP||GBP|Food and dining|112,256,257,282,301||140673
305|London Oktoberfest, Canary Wharf: complimentary tickets|51.489544|-0.011077|London|United Kingdom|E14 3AY|complimentary_event|16.000|GBP||GBP|Food and dining|112,256,257,282,301||140585
306|London Oktoberfest, Olympia London: complimentary tickets|51.496501|-0.210688|London|United Kingdom|W14 8UX|complimentary_event|16.000|GBP||GBP|Food and dining|112,256,257,282,301||140585
307|The Fold: designer shoe launch and private shopping experience|51.497320|-0.157511|London|United Kingdom|SW1 9RX|member_event|20.000|GBP||GBP|Fashion, jewellery and accessories|112,256,257,282,301||140740
308|Lane Crawford: John Lobb bespoke service demo & whisky tasting|22.285800|114.157800|Hong Kong|Hong Kong SAR||complimentary_event|0.000|HKD||GBP|Fashion, jewellery and accessories|151,152,153,245||140691
309|Private kitchen table: game and wine dinner at The Woodspeen|51.415602|-1.353966|Newbury|United Kingdom|RG20 8BN|member_event|130.000|GBP||GBP||112,2,256,257,301||129888
310|Moniker Art Fair, Collector’s Preview: complimentary tickets and 50% ticket discount|51.488271|-0.171203|London|United Kingdom|SW3 6NJ|complimentary_event|25.000|GBP||GBP|Art & Culture|112,256,257,301||140693
311|The Other Art Fair, Private View: complimentary tickets|51.519527|-0.121905|London|United Kingdom|WC1A 2QP|complimentary_event|25.000|GBP||GBP|Art & Culture|111,112,168,256,257,282,301,309||129763
312|Pierre Hermé: gourmet macaron and tea tasting with private shopping experience|51.513433|-0.129436|London|United Kingdom|WC2H 9EP|member_event|45.000|GBP||GBP|Celebrity chef,Food and dining|112,2,256,257,301||111170
313|Indian Accent: Q&A with Manish Mehrotra plus a paired, four-course dinner|51.509306|-0.141877|London|United Kingdom|W1S 4HW|member_event|125.000|GBP||GBP|Food and dining|111,168||
314|Ski & Snowboard Festival: complimentary tickets|51.480501|-0.155966|London|United Kingdom|SW8 4NW|complimentary_event|0.000|GBP||GBP||112,2,282,301||139755
315|Nespresso: exclusive barista masterclass|22.285508|114.158084|Hong Kong|Hong Kong SAR||complimentary_event|0.000|HKD||GBP|Food and dining|151,152,153||140692
316|Vacheron Constantin: Les Collectionneurs & Nicknames Exhibition|1.304109|103.831935|Singapore|Singapore||complimentary_event|0.000|SGD||GBP|Fashion, jewellery and accessories|155||140453
317|Love Wine, Love Chile: complimentary tickets|51.520575|-0.073342|London|United Kingdom|E1 6QR|complimentary_event|0.000|GBP||GBP||112,2,256,257,282,301||138717
318|Knightsbridge Rocks: vintage jewellery & contemporary fashion evening|51.496033|-0.168609|London|United Kingdom|SW3 2DB|member_event|20.000|GBP||GBP||112,2,256,257,282,301||139591
319|Woolwich Contemporary Print Fair, New Collectors’ Evening: complimentary tickets|51.492618|0.067263|London|United Kingdom|SE18 6ST|complimentary_event|14.000|GBP||GBP|Art & Culture|112,256,257,282,301,309||140815
320|Whisky meets design at The Berkeley Bar & Terrace|51.501850|-0.155661|London|United Kingdom|SW1X 7RL|member_event|165.000|GBP||GBP||112,256,257,301||140920
321|Asia Contemporary Art Show Fall 2019: complimentary VIP tickets|22.276722|114.165512|Hong Kong|Hong Kong SAR||complimentary_event|0.000|HKD||GBP|Art and exhibitions|151,152,153||140444
322|Mimo London Best of Borough Market private tour, cooking class and lunch|51.506251|-0.090403|London|United Kingdom|SE1 9DE|member_event|165.000|GBP||GBP||112,2,256,257,282,301||140944
323|Independent Schools Show: complimentary tickets|51.480501|-0.155966|London|United Kingdom|SW8 4NW|complimentary_event|30.000|GBP||GBP|Family|112,2,256,257,282,301||140898
324|Ideal Home Show Christmas: complimentary tickets|51.496501|-0.210688|London|United Kingdom|W14 8UX|complimentary_event|19.000|GBP||GBP|Gifting,Home and garden|112,256,257,282,301||126891
325|Affordable Art Fair: private guided tour of the 20th anniversary edition|51.480501|-0.155967|London|United Kingdom|SW8 4NW|member_event|18.000|GBP||GBP|Art & Culture,Family,Gifting|112,256,257,282,301||123808
326|Spirit of Christmas Fair: complimentary tickets|51.496500|-0.210688|London|United Kingdom|W14 8UX|complimentary_event|45.000|GBP||GBP|Family,Gifting|112,2,256,257,282,301||138612
327|Vhernier: innovation in jewels led by Katerina Perez|51.509612|-0.143216|London|United Kingdom|W1S 3ER|member_event|15.000|GBP||GBP|Fashion, jewellery and accessories|112,256,257,282,301||140968
328|Rathfinny Wine Estate takeover at Le Gavroche with Michel Roux Jr|51.511254|-0.155167|London|United Kingdom|W1K 7QR|member_event|265.000|GBP||GBP|Food and dining|112,2,255,256,257,282,301||100430
329|SUSHISAMBA: exclusive dinner and sake to celebrate World Sake Day|51.516174|-0.080940|London|United Kingdom|EC2N 4AY|member_event|150.000|GBP||GBP|Art & Culture,Food and dining|111,112,168,2,256,257,282,301||104444
330|LIMA London: ceviche masterclass hosted by the head chef|51.517706|-0.136608|London|United Kingdom|W1T 1JH|member_event|50.000|GBP||GBP|Food and dining|112,256,257,282,301||107290
331|Discover the world of magic at this exclusive after-hours Harry Potter Studio Tour in London|51.690328|-0.418059|Watford|United Kingdom|WD25 7LR|member_event|260.000|GBP||GBP|Food and dining|112,256,257,282,301||115661
333|Tom’s Kitchen: members-only wine-paired dinner and exclusive Q&A with Tom Aikens|51.490442|-0.168070|London|United Kingdom|SW3 3QP|member_event|90.000|GBP||GBP|Food and dining|112,256,257,282,301||118189
334|Exclusive dinner and wine tasting at St Pancras by Searcys Brasserie and Champagne Bar|51.530798|-0.126275|London|United Kingdom|N1C 4QL|member_event|80.000|GBP||GBP|Food and dining|112,2,256,257,282,301||120391
335|British Boarding Schools Show 2019: complimentary premium tickets|22.277352|114.164969|Hong Kong|Hong Kong SAR||complimentary_event|0.000|HKD||GBP|Family|151,152,153,255||140845
336|Chiltern Firehouse: oyster-shucking masterclass and private lunch|51.518653|-0.154865|London|United Kingdom|W1U 7PA|member_event|175.000|GBP||GBP|Food and dining|112,2,255,256,257,282,301||122827
337|Eat & Drink Festival Christmas: complimentary tickets|51.496501|-0.210688|London|United Kingdom|W14 8UX|complimentary_event|19.000|GBP||GBP|Family,Food and dining|111,112,242,255,256,257,282,301||133410
338|Three Wine Men Cambridge Winter Wine Festival: complimentary tickets|52.204991|0.119199|Cambridge|United Kingdom|CB2 3QJ|complimentary_event|32.000|GBP||GBP|Drinks,Food and dining|112,256,257,282,301||138717
339|Whisky Live Hong Kong 2019: complimentary premium pass|22.283347|114.149410|Hong Kong|Hong Kong SAR||complimentary_event|0.000|HKD||GBP|Drinks|151,152,153||140963
340|Leica: complimentary beginner photography workshop|22.279336|114.182030|Hong Kong|Hong Kong SAR||complimentary_event|0.000|HKD||GBP|Technology and gadgets|151,152,153||141025
341|The Wine Show Chelsea: complimentary tickets|51.487470|-0.168180|London|United Kingdom|SW3 5EE|complimentary_event|55.000|GBP||GBP|Drinks|112,256,257,282,301||141037
342|testing|25.122318|55.131745|Dubai|United Arab Emirates||member_event|500.000|AED|500.000|AED|Davies & Brook|254||
343|National Pet Show: complimentary tickets|52.454242|-1.717015|Birmingham|United Kingdom|B40 1NT|complimentary_event|0.000|GBP||GBP||112,2,256,257,282,301||139524
344|Affordable Art Fair Singapore: Complimentary Tickets|1.291244|103.863927|Singapore|Singapore||complimentary_event|0.000|SGD||GBP|Art and exhibitions|255,265||
345|Jewel Changi Airport Canopy Park: Complimentary tickets|1.360134|103.989719|Singapore|Singapore||complimentary_event|0.000|SGD||GBP|Family|265||
346|Monica Vinader: Jewellery Styling Workshop|1.304248|103.831495|Singapore|Singapore||complimentary_event|0.000|SGD||GBP|Fashion, jewellery and accessories|265||
347|Vacheron Constantin: Les Collectionneurs & Nicknames Exhibition|1.304109|103.831935|Singapore|Singapore||complimentary_event|0.000|SGD||GBP|Fashion, jewellery and accessories|265||
348|Wow dinner series: an evening with Infinity|22.283361|114.152063|Hong Kong|Hong Kong SAR||member_event|250.000|SGD||GBP|Food and dining|265||
349|Chiltern Firehouse: oyster-shucking masterclass and private lunch|51.518653|-0.157054|London|United Kingdom|W1U 7PA|member_event|300.000|SGD||GBP|Food and dining|265||122827
350|Cookery masterclass with Michel Roux Jr at Sauce by The Langham|51.517589|-0.146064|London|United Kingdom|W1B 1JA|member_event|250.000|SGD||GBP|Michel Roux Jr|265||116162
351|Whisky Live Hong Kong 2020: complimentary premium pass|22.283347|114.149410|Hong Kong|Hong Kong SAR||complimentary_event|0.000|SGD||GBP|Food and dining|265||
352|Ideal Home Show Christmas: complimentary tickets|51.496501|-0.210688|London|United Kingdom|W14 8UX|complimentary_event|32.000|SGD||GBP|Food and dining|265||126891
353|Lane Crawford: John Lobb bespoke service demo & whisky tasting|22.285800|114.157800|Hong Kong|Hong Kong SAR||complimentary_event|0.000|SGD||GBP|Fashion, jewellery and accessories|265||
354|Asia Contemporary Art Show Fall 2019: complimentary VIP tickets|22.276722|114.165512|Hong Kong|Hong Kong SAR||complimentary_event|0.000|SGD||GBP|Art and exhibitions|265||
355|Independent Schools Show: complimentary tickets|51.480501|-0.155966|London|United Kingdom|SW8 4NW|complimentary_event|50.000|SGD||GBP|Education|265||
356|An evening with Mark Hix, Black Cow Vodka and Lyme Bay wines: unique food and drink pairing|50.722890|-2.939512|Lyme Regis|United Kingdom|DT7 3JP|member_event|65.000|GBP||GBP|Food and dining|112,256,257,282,301||122655
357|Hayford & Rhodes: expert-led floral workshop|51.500319|-0.082917|London|United Kingdom|SE1 3HB|member_event|85.000|GBP||GBP|Family,Gifting,Home and garden|112,256,257,282,301||136709
358|The Shed: private dining takeover by two-Michelin-star The Hand & Flowers|51.569788|-0.785481|Marlow|United Kingdom|SL7 2BP|member_event|185.000|GBP||GBP|Food and dining|112,255,256,257,282,301||100726
359|Inamo: sushi-making masterclass and tasting menu dinner with free-flowing wine or beer|51.513386|-0.123155|London|United Kingdom|WC2E 9JP|member_event|60.000|GBP||GBP|Food and dining|112,256,257,282,301||131200
360|Fabergé: complimentary jewellery collection private view evening|1.304695|103.824891|Singapore|Singapore||complimentary_event||GBP||GBP|Fashion, jewellery and accessories|265||132860
361|Christie’s: complimentary auction preview private reception|1.305891|103.829420|Singapore|Singapore||complimentary_event||GBP||GBP|Art and exhibitions|155||138725
362|Discover the world of magic at this exclusive after-hours Harry Potter Studio Tour in London|51.690328|-0.418059|Watford|United Kingdom|WD25 7LR|member_event|260.000|GBP|260.000|GBP|Art & Culture,Family,Food and dining|111,168,242||115661
363|Country Living Christmas Fair Glasgow: complimentary tickets|55.861224|-4.288927|Glasgow|United Kingdom|G3 8YW|complimentary_event|19.000|GBP||GBP|Family,Gifting|112,2,255,256,257,282,301||121017
364|Country Living Christmas Fair London: complimentary tickets|51.535801|-0.106332|London|United Kingdom|N1 0QH|complimentary_event|19.000|GBP||GBP|Family,Gifting|112,2,256,257,282,301,313||121017
365|Gabbitas: British education seminar|1.294350|103.842121|Singapore|Singapore||complimentary_event|0.000|SGD||GBP|Education|265||
366|Watches of Switzerland: discover some of the world's most desirable timepieces|51.500831|-0.161643|London|United Kingdom|SW3 1DE|member_event|15.000|GBP||GBP|Fashion, jewellery and accessories,Gifting|112,2,256,257,282,301,313||119139
367|elBarri chefs and Michelin-starred co-founder Albert Adrià host a members-only dinner party in London|51.510194|-0.136359|London|United Kingdom|W1B 4DY|member_event|175.000|GBP||GBP|Food and dining|112,256,257,282,301||138794
368|Bar Pepito by Camino: bespoke sherry masterclass and tapitas pairing|51.531243|-0.123962|London|United Kingdom|N1 9FD|member_event|45.000|GBP||GBP|Food and dining|2,301||136474
369|The Langham Safari: cocktails, world-class cooking and more at this five-star hotel|51.517801|-0.143993|London|United Kingdom|W1B 1JA|member_event|95.000|GBP||GBP||111,168,242||116162
370|Exclusive LG launch: a celebration of art, design and technology with a Champagne reception|51.496140|-0.137153|London|United Kingdom|SW1P 1QN|member_event|10.000|GBP||GBP|Technology and gadgets|112,2,256,257,282,301||141179
371|Country Living Christmas Fair Harrogate: complimentary tickets|53.996977|-1.540913|Harrogate|United Kingdom|HG1 5LA|complimentary_event|19.000|GBP||GBP|Family,Gifting|103,104,112,2,255,256,257,282,301||121017
372|Downtown Design Dubai VIP Preview: complimentary tickets|25.187501|55.297483|Dubai|United Arab Emirates||complimentary_event|0.000|GBP||GBP|Art & Culture|254,276,277||141177
373|The New Craftsmen: private workshop with award-winning artist Jane Ponsford|51.513284|-0.156313|London|United Kingdom|W1K 6DG|member_event|45.000|GBP||GBP|Art & Culture|112,256,257,282,301||138218
374|The Wine Gang Winter Festival: complimentary tickets|51.522982|-0.088395|London|United Kingdom|EC1Y 2BQ|complimentary_event|20.000|GBP||GBP|Drinks,Food and dining|112,256,257,282,301||140007
375|Taste of Abu Dhabi: complimentary tickets|24.480801|54.605848|Abu Dhabi|United Arab Emirates||complimentary_event|70.000|AED||GBP|Drinks,Food and dining|254,276,277||141176
376|Taste of Abu Dhabi: complimentary tickets|24.480801|54.605848|Abu Dhabi|United Arab Emirates||complimentary_event||GBP||GBP|Food and dining|112,256,257,301||41176
377|WatchBox: watch and whisky appreciation evening|22.280257|114.155053|Hong Kong|Hong Kong SAR||complimentary_event|0.000|HKD||GBP|Fashion, jewellery and accessories|151,152,153||141016
378|Foodies Festival Tatton Park Christmas: complimentary tickets|53.331257|-2.389973|Cheshire|United Kingdom|WA16 6SG|complimentary_event|14.000|GBP||GBP|Food and dining|112,2,256,257,282,301||134458
379|Foodies Festival Edinburgh Christmas: complimentary tickets|55.946053|-3.209927|Edinburgh|United Kingdom|EH3 8EE|complimentary_event|14.000|GBP||GBP|Food and dining|112,2,255,256,257,282,301||134458
380|Dubai International Motor Show: complimentary VIP Pass|25.227185|55.288806|Dubai|United Arab Emirates||complimentary_event|0.000|GBP||GBP|Motor|254,276,277||141195
381|Natural History Museum Ice Rink 2019: complimentary tickets|51.496715|-0.176367|London|United Kingdom|SW7 5BD|complimentary_event|15.950|GBP||GBP|Family|103,104,112,256,257||100967
382|CHANEL BEAUTÉ: Complimentary Sublime Treatment|22.304870|114.159333|Hong Kong|Hong Kong SAR||complimentary_event|1600.000|HKD||GBP|Cosmetics & Fragrances|151,152,153||141032
383|Christmas entertaining and floristry at Martin Moore|51.514737|-0.200884|London|United Kingdom|W11 2RW|member_event|25.000|GBP||GBP|Food and dining,Home and garden|112,256,257,282,301||134403
384|Christian Louboutin: Priority Access to Pre-sale|22.280814|114.156415|Hong Kong|Hong Kong SAR||complimentary_event|0.000|HKD||GBP|Fashion, jewellery and accessories|151,152,153||141241
385|Moët Hennessy: a festive Champagne Icons tasting|51.497438|-0.147220|London|United Kingdom|SW1W 0DH|member_event|135.000|GBP||GBP|Drinks,Food and dining|111,168,242||117097
386|Three Wine Men Manchester Christmas Tasting: complimentary tickets|53.476566|-2.246441|Manchester|United Kingdom|M2 3GX|complimentary_event|32.000|GBP||GBP|Drinks,Food and dining,Gifting|103,104,111,112,168,256,257,282,301||138717
387|Lane Crawford: pre-Christmas chocolate and whisky pairing masterclass|22.276782|114.164931|Hong Kong|Hong Kong SAR||complimentary_event|0.000|HKD||GBP|Gifting|151,152,153||
388|An Evening with Michelle Obama|1.333525|103.959537|Singapore|Singapore||member_event|3250.000|SGD||GBP|Fashion, jewellery and accessories|155||
389|The Gin To My Tonic Harrogate: complimentary tickets|53.996489|-1.540010|Harrogate|United Kingdom|HG1 5LA|complimentary_event|13.500|GBP||GBP|Complimentary,Drinks|103,104,112,2,256,257,282,301|Paul Hudson-Jones|139202
390|Chefs Series dinner: exclusive concierge takeover of Marcus with chef Marcus Wareing|51.501988|-0.156140|London|United Kingdom|SW1X 7RL|member_event|230.000|GBP||GBP|Marcus Wareing|103,104,112,2,256,257,282,301||100469
391|Jaeger-LeCoultre: watchmaking masterclass|22.318567|114.179605|Hong Kong|Hong Kong SAR||complimentary_event|0.000|HKD||GBP|Fashion, jewellery and accessories|151,152,153||141355
392|The National Running Show Birmingham: complimentary tickets|52.455539|-1.716900|Birmingham|United Kingdom|B40 1NT|complimentary_event|10.000|GBP||GBP|Health & Fitness|112,2,256,257,282,301||141424
393|London Art Fair 2020 VIP Pass: complimentary tickets|51.535802|-0.106333|London|United Kingdom|N1 0QH|complimentary_event|0.000|GBP||GBP|Art & Culture,Gallery|112,282||131671
394|London Art Fair 2020 Preview Evening: complimentary tickets|51.535802|-0.106333|London|United Kingdom|N1 0QH|complimentary_event|31.000|GBP||GBP|Art & Culture|112,282||131671
395|London Art Fair 2020 Private View: complimentary tickets|51.535802|-0.106333|London|United Kingdom|N1 0QH|complimentary_event|0.000|GBP||GBP|Art & Culture,Complimentary|103,104,112,256,257,282,301,313||131671
396|The Stitch Festival: complimentary tickets|51.535802|-0.106333|London|United Kingdom|N1 0QH|complimentary_event|18.000|GBP|6.000|GBP|Art & Culture,Fashion,Fashion, jewellery and accessories,Home and garden|103,104,112,256,257,282,301||141440
397|How To Get Into Oxbridge & The Ivy League: complimentary tickets|51.495371|-0.181897|London|United Kingdom|SW7 5BT|complimentary_event|10.000|GBP||GBP|Education,University|112,2,256,257,282,301||141465
398|Plant Powered EXPO: complimentary tickets|51.496500|-0.210688|London|United Kingdom|W14 8UX|complimentary_event|15.000|GBP||GBP|Dining,Food and dining,Food and drink|103,104,112,256,257,282,301|Vegfest UK Ltd|140673
399|Fashion Weekend London: complimentary tickets|51.519421|-0.124383|London|United Kingdom|WC1B 4DA|complimentary_event|15.000|GBP||GBP|Fashion,Fashion, jewellery and accessories|103,104,112,256,257,282,301||101609
400|Connect Fair Opening Preview: complimentary tickets|51.506544|-0.129838|London|United Kingdom|SW1Y 5BD|complimentary_event|25.000|GBP||GBP|Art & Culture,Gallery|103,104,112,2,282,301||137588
401|Connect Fair exclusive tour: complimentary tickets|51.506544|-0.129838|London|United Kingdom|SW1Y 5BD|complimentary_event||GBP||GBP|Art & Culture,Gallery|103,104,112,2,256,257,282,301||137588
402|Art Dubai VIP Invitations|25.134106|55.187154|Dubai|United Arab Emirates||complimentary_event||GBP||GBP|Art & Culture|276||141177
403|Race Retro: complimentary tickets|52.340225|-1.526531|Coventry|United Kingdom|CV8 2LZ|complimentary_event|23.000|GBP||GBP|Motor,Motor sport|103,104,112||136292
404|Knightsbridge Rocks: find the perfect jewels and birthstones ahead of Valentine’s Day|51.496038|-0.168615|London|United Kingdom|SW3 2DB|member_event|20.000|GBP||GBP|Jewellery & accessories|112,2,256,257,301||139591
405|Collect Fair, Exclusive Tour: complimentary tickets|51.511069|-0.117148|London|United Kingdom|WC2R 1LA|complimentary_event||GBP||GBP|Art & Culture,Gallery|103,104,112,2,257,282,301||136367
406|Collect Fair Collector’s Preview: complimentary tickets|51.511069|-0.117148|London|United Kingdom|WC2R 1LA|complimentary_event||GBP||GBP|Art & Culture|103,104,112,282,301||136367
407|Three Wine Men – A World of Difference Portuguese wine tasting: complimentary tickets|51.521802|-0.071488|London|United Kingdom|E1 6RU|complimentary_event|29.500|GBP||GBP|Drinks,Food and dining,Food and drink,Wine|103,104,112,256,257,282,301||138717
408|Live Well London 2020: complimentary tickets|51.509043|-0.084054|London|United Kingdom|EC3R 6DX|complimentary_event|39.000|GBP||GBP|Health & Fitness,Sports,Yoga|103,104,112,256,257,282,301||139200
409|Bridelux exklusives VIP Event: Gratis Tickets|51.502132|-0.160055|London|United Kingdom||complimentary_event|45.000|GBP||GBP|Fashion, jewellery and accessories|255||139261
410|Downtown Design Dubai VIP Preview: Gratis Tickets|25.187501|55.297483|Dubai|United Arab Emirates||complimentary_event|0.000|GBP||GBP|Art & Culture|255||
411|Dubai International Motor Show: Gratis-VIP-Pass|25.227185|55.288806|Dubai|United Arab Emirates||complimentary_event|0.000|GBP||GBP|Motor|255||
412|CHANEL BEAUTÉ: Gratis \"Sublime\" Behandlung|22.304870|114.159333|Hong Kong|Hong Kong SAR||complimentary_event|25.000|GBP||GBP|Cosmetics & Fragrances|255||
413|Pierre Hermé Paris: macaron and chocolate tasting paired with drinks from One to Wine|51.513417|-0.127201|London|United Kingdom|WC2H 9EP|member_event|45.000|GBP||GBP|Drinks,Food and dining,Food and drink,Wine|103,104,112,256,257,301||111170
414|The London Classic Car Show Preview Evening: complimentary tickets|51.496501|-0.210688|London|United Kingdom|W14 8UX|complimentary_event|75.000|GBP||GBP|Motor,Motor sport|103,104,112,282,301||142199
415|Champagne masterclass and tasting at St Pancras by Searcys Brasserie and Champagne Bar|51.530798|-0.126275|London|United Kingdom|N1C 4QL|member_event|60.000|GBP||GBP|Drinks|103,104,112,2,256,257,301||120391
416|Watches of Switzerland: private Valentine’s Day shopping evening|51.511623|-0.139615|London|United Kingdom|W1B 4AD|member_event|15.000|GBP||GBP|Fashion,Jewellery,Watches and jewellery|103,104,112,256,257,282,301||119139
417|Exclusive fascinator workshop: a hands-on class with Sahar Millinery|51.509475|-0.131131|London|United Kingdom|WC2H 7DT|member_event|90.000|GBP||GBP|Fashion, jewellery and accessories,Womenswear|103,104,112,2,256,257,282,301||139578
418|HSBC Jade exclusive: restaurant takeover and dinner with chef Michel Roux Jr|51.517934|-0.143646|London|United Kingdom|W1B 1JA|member_event|175.000|GBP||GBP|Food and dining|111,168||103746
419|Pasta masterclass for children and family lunch at Pastaio Westfield|51.507706|-0.221331|London|United Kingdom|W12 7GF|member_event|30.000|GBP|20.000|GBP|Food and dining,Food and drink|112,2,256,257,282,301||142367
420|Shangri-La Hotel: private bar preview|51.504397|-0.086782|London|United Kingdom|SE1 9QU|member_event|75.000|GBP||GBP|Food and dining|111,112,2,256,257,282,301||142409
421|Lightopia: complimentary tickets|51.483671|-0.258457|London|United Kingdom|W4 2RP|complimentary_event|22.000|GBP||GBP|Art & Culture,Family|103,104,112,2,256,257,282,301||142336
423|The Other Art Fair: Private View invitation|51.520575|-0.073342|London|United Kingdom|E1 6QR|complimentary_event|25.000|GBP||GBP|Art & Culture,Complimentary,Gallery|112,2,256,257,282,301||129763
424|Royal Academy of Arts: complimentary tickets to once-in-a-lifetime exhibitions|51.509442|-0.139868|London|United Kingdom|W1J 0BD|complimentary_event|22.000|GBP||GBP|Art & Culture,Complimentary,Family,Gallery|103,104,112,282,301||125932
425|Affordable Art Fair: Charity Private View complimentary tickets|51.480477|-0.155994|London, UK|United Kingdom|SW11 4NJ (Sat nav: SW8 4NW)|complimentary_event|27.000|GBP||GBP|Art & Culture,Classes,Gallery|112,256,257,282,301||123808
426|Affordable Art Fair: Late View complimentary tickets|51.480477|-0.155994|London, UK|United Kingdom|SW11 4NJ (Sat nav: SW8 4NW)|complimentary_event|22.000|GBP||GBP|Art & Culture,Classes,Gallery|2||123808
427|The Gin To My Tonic Show Glasgow: complimentary tickets|55.861224|-4.288927|Glasgow|United Kingdom|G3 8YW|complimentary_event|20.000|GBP||GBP|Classes,Cooking,Drinks,Food and drink|112,256,257,282,301||139202
429|Eat & Drink Festival: complimentary tickets|51.496500|-0.210688|London|United Kingdom|W14 8UX|complimentary_event|20.000|GBP||GBP|Classes,Cooking,Drinks,Food and drink|112,256,257,282,301||134410
430|Dubai International Boat Show: VIP programme|25.083268|55.122061|Dubai|United Arab Emirates||complimentary_event|0.000|AED||GBP|Art & Culture,Cruise,Gallery|276,277||141195
431|The Open Art Fair: complimentary access|51.491455|-0.161008|London|United Kingdom|SW3 4LY|complimentary_event|20.000|GBP||GBP|Art & Culture,Family,Gallery|112,256,257,301||142529
432|Taste of Dubai: complimentary tickets|25.092297|55.152868|Dubai|United Arab Emirates||complimentary_event|65.000|AED||GBP|Food and drink|276||141176
433|Marina Social: private dinner hosted by Michelin-starred chef Jason Atherton|25.078750|55.137983|Dubai|United Arab Emirates||member_event|800.000|AED||GBP|Dining,Food and drink|276||138956
434|Martin Moore: Easter entertaining and floristry|51.514747|-0.200836|London|United Kingdom|W11 2RW|member_event|25.000|GBP||GBP|For her,Gifting,Home and technology|112,256,257,301||134403
435|British Boarding Schools Show UAE: complimentary tickets|25.119290|55.203153|Dubai|United Arab Emirates||complimentary_event|236.000|AED|0.000|AED|Education,Family|276||140898
436|Gin & Rum Festival, Manchester: complimentary tickets|53.485237|-2.244348|Manchester|United Kingdom|M3 1SX|complimentary_event|15.000|GBP||GBP|Drinks,Food and drink,Manchester|112,256,257,282,301||140462
437|The Wine & Spirits Show: complimentary tickets|51.506080|-0.124169|London|United Kingdom|SW1A 2EJ|complimentary_event|55.000|GBP||GBP|Drinks,Wine|112,2,256,257,282,313||141037
438|Grand Designs Live: enjoy your complimentary tickets|51.507776|0.027871|London|United Kingdom|E16 1XL|complimentary_event|15.000|GBP||GBP|Drinks,Family,Food and drink,Free,Home and technology|111,112,168,242,256,257,301||123740
439|Gin & Rum Festival, London: complimentary tickets|51.519829|-0.161602|London|United Kingdom|W1H 1PQ|complimentary_event|18.000|GBP||GBP|Drinks,Food and drink,London|256,257,282,301||140462
440|Gin & Rum Festival, Leeds: complimentary tickets|53.800255|-1.549668|Leeds|United Kingdom|LS1 3AD|complimentary_event|15.000|GBP||GBP|Drinks,Food and drink,Leeds|112,256,257,301||
441|Gin & Rum Festival, Bristol: complimentary tickets|||Bristol|United Kingdom|BS1 6QH|complimentary_event|15.000|GBP||GBP|Bristol,Drinks,Food and drink|256,257,301||140462
442|Gin & Rum Festival, Nottingham: complimentary tickets|52.956177|-1.151827|Nottingham|United Kingdom|NG1 4BU|complimentary_event|15.000|GBP||GBP|Drinks,Food and drink,Nottingham|256,257,282,301||140462
443|The National Running Show London: complimentary tickets|51.535590|-0.105934|London|United Kingdom|N1 0QH|complimentary_event|10.000|GBP||GBP|Health & Fitness,Running,Wellbeing|103,104,112,256,257,282,301||141424
444|Country Living Spring Fair: complimentary tickets|51.594178|-0.130773|London|United Kingdom|N22 7AY|complimentary_event|20.000|GBP||GBP|Home and technology|112,256,257,282,301||121017
445|The Elite London: complimentary tickets|51.610469|-0.802815|Marlow|United Kingdom|SL7 3DP|complimentary_event|15.000|GBP||GBP|Drinks,Fashion,For her,For him,Free,Furniture,Gifting,Golf,Health & Fitness,Home and technology,Jewellery,Motor,Spa,Travel|112,256,257,282,301||117133
446|Crimson Education virtual seminar – keep education on track: complimentary tickets|51.515409|-0.139854|London|United Kingdom|W1D 1NB|complimentary_event||GBP||GBP|Education|103,104,256,257,276,282,301||141465
447|Digital Events: coming soon|51.528308|-0.381777|UK|United Kingdom||member_event||GBP||GBP|Art & Culture,Classes,Cookery class,Education,Family,Food and drink,Home and technology,Tutoring,Yoga|112,246,256,257,282,301,313||143052
449|Do Not Book StredCards Test Event|51.509442|-0.142057|London|United Kingdom|NW1 3AL|member_event|1.000|GBP|1.000|GBP|Practical Classics|112||
450|A Special Night In with Krug and Zén|1.313984|103.564053|Singapore|Singapore||member_event|575.000|SGD||GBP|Cooking,Interactive,Masterclass|155||143102
451|Centurion Living - Dance: Aakash Odedra|||Houston, Washington DC|Global||complimentary_event||CHF||GBP|Complimentary,Culture, Music and Literature|338||
452|Centurion Living - Soul: Alicia Keys|||Paris, Munich|Global||complimentary_event||CHF||GBP|Culture, Music and Literature,Munich,Paris|338||
453|Centurion Living - Bossa Nova: Eliane Elias|||New York, Miami|Global||complimentary_event||CHF||GBP|Complimentary,Culture, Music and Literature,Dubai,Frankfurt,Miami,Milan,Music,New York,Stockholm,Zürich|338||
454|Centurion Living - Classical: Yo-Yo Ma|||Vienna|Austria||complimentary_event||CHF||GBP|Complimentary,Culture, Music and Literature|338||
455|Centurion Living - Literature: Salman Rushdie|||Boston, Los Angeles|United States||complimentary_event||CHF||GBP|Boston,Complimentary,Culture, Music and Literature,Los Angeles,New York|338||
456|Centurion Living - World Music: Salif Keïta|||Amsterdam, Dubai, New York, Paris|Global||complimentary_event||CHF||GBP|Amsterdam,Complimentary,Culture, Music and Literature,Dubai,Music,New York|338||
457|Centurion Living - Cinema: Wong Kar-wai – In the Mood for Love|||Hong Kong SAR|Global||complimentary_event||CHF||GBP|Complimentary,Culture, Music and Literature,Hong Kong,New York,San Francisco|338||
459|Introduction to Wellbeing with Gwyneth Paltrow and goop|||Los Angeles|United States||complimentary_event||CHF||GBP|Beauty & Well-being,Complimentary,Education,Health & Fitness,Los Angeles|338||
460|Introduction to classical music with Yo-Yo Ma|||New York|United States||complimentary_event||CHF||GBP|Complimentary,Culture, Music and Literature,Education,Music,New York|338||
461|Centurion Living - Introduction to ceremonial Japan|||Tokyo|Japan||complimentary_event||CHF||GBP|Complimentary,Culture, Music and Literature,Education,Tokyo|338||
462|Centurion Living - Introduction to autobiography with Lifebook|||Amsterdam|Global||complimentary_event||CHF||GBP|Amsterdam,Complimentary,Culture, Music and Literature,Dubai,Education|338||
463|Introduction to the Scottish Highlands|||Braemer|United Kingdom||complimentary_event||CHF||GBP|Braemer,Complimentary,Culture, Music and Literature,Education|338||
464|Centurion Living - Introduction to ikebana with Senko Ikenobo|||Hong Kong SAR|Global||complimentary_event||CHF||GBP|Complimentary,Culture, Music and Literature,Education|338||
465|Introduction to contemporary Chinese art with The Guggenheim|||Art Basel, Hong Kong|Hong Kong SAR||complimentary_event||CHF||GBP|Art & Culture,Complimentary,Education,Hong Kong|338||
466|Centurion Living - Introduction to fine wine with Arvid Rosengren|||Dubai, Tokyo, Singapore|Global||complimentary_event||CHF||GBP|Complimentary,Education|338||
472|Centurion Living - Jazz: Dianne Reeves|||Stockholm|Global||complimentary_event||GBP||GBP|Complimentary,Culture, Music and Literature|338||
473|[Example Event] Whisky Live Hong Kong: complimentary premium pass|22.283347|114.149410|Hong Kong|Hong Kong SAR||complimentary_event|1080.000|GBP||GBP|Drinks|2||140963
474|[Example event] Affordable Art Fair Singapore: Complimentary Tickets|1.291244|103.863927|Singapore|Singapore||complimentary_event|100.000|GBP||GBP|Art & Culture|2||
475|Live magic and mind-reading show with celebrity magician Chris Cox|||Live-streamed via Zoom|Global||complimentary_event||GBP||GBP|Complimentary,Virtual events|112,301,326||146670
476|The Book Club: The Sleeping Beauties by Suzanne O’Sullivan|||Attend via Zoom|Global||complimentary_event||GBP||GBP|Art & Culture,Digital events,Interactive,Virtual events|2,246,256,257,301,313||144311
477|The Book Club: The Sleeping Beauties by Suzanne O’Sullivan|||Attend via Zoom|Global||complimentary_event||GBP||GBP|Art & Culture,Complimentary,Virtual events|111,168,242,282,301,326||144311
478|The Book Club: Shuggie Bain by Douglas Stuart|||Attend via Zoom|Global||complimentary_event||GBP||GBP|Art & Culture,Interactive,Virtual events|2,246,256,257,313||144311
479|The Book Club: Shuggie Bain by Douglas Stuart|||Attend via Zoom|Global||complimentary_event||GBP||GBP|Art & Culture,Complimentary,Interactive|111,168,2,242,282,326||144311
480|The Book Club: Independence Square by A.D. Miller|||Attend via Zoom|Global||complimentary_event||GBP||GBP|Art & Culture,Complimentary,Interactive,Virtual events|111,168,2,301,326||144311
481|The Book Club: Independence Square by A.D. Miller|||Attend via Zoom|Global||complimentary_event||GBP||GBP|Art & Culture,Complimentary,Interactive|2,246,256,257,313||144311
482|Develop your mental fortitude with James Cracknell OBE|||Live-streamed via Zoom|Global||complimentary_event||GBP||GBP|Complimentary,Digital events,Events,Interactive,Virtual events,Webinars|112,2,256,257,301,326||146229
483|Bridelux Atelier 2021: complimentary in-person access to a luxury wedding expo|51.510233|-0.120704|London|United Kingdom|WC2R 0EZ|complimentary_event||GBP||GBP|Beauty and wellbeing,Clothes,Fashion,For her,For him,London|112,2||139261
484|A dog's life: complimentary tickets to DogFest Leicestershire|52.894746|-0.782428|Grantham|United Kingdom|NG32 1PE|complimentary_event|21.400|GBP||GBP|Child-friendly,Complimentary,Events|103,104,111,112,168,256,257,301,326,389||146719
485|Live, virtual cook-along with Hawksmoor: Kit 1 (without alcohol)|51.503521|-0.079431|London|United Kingdom|SE1 2SD|member_event|95.000|GBP||GBP|Virtual events|112,2,246,256,257,282,301,313,326||113065
486|A dog's life: complimentary tickets to DogFest Surrey|51.215264|-0.605706|Guildford|United Kingdom|GU3 1HS|complimentary_event|21.400|GBP||GBP|Child-friendly,Complimentary,Events|103,111,112,168,256,257,301,326,389||139557
487|Join the DogFest at Borde Hill Garden with complimentary tickets to the Big Dog Walk|51.021600|-0.117544|Sussex|United Kingdom|RH16 1XP|complimentary_event|11.130|GBP||GBP|Child-friendly,Complimentary,Events|112,2,256,257,282,301||146719
488|A dog's life: complimentary tickets to DogFest Yorkshire|53.896890|-1.527310|Harewood|United Kingdom|LS17 9LG|complimentary_event|21.400|GBP||GBP|Child-friendly,Complimentary,Events|103,111,112,168,256,257,326,389||139557
489|Live magic and mind-reading show with celebrity magician Chris Cox|||Live-streamed via Zoom|Global||complimentary_event||GBP||GBP|Complimentary,Virtual events|111,168,242||146670
490|Live, virtual cook-along with Hawksmoor: Kit 2 (with alcohol)|51.503521|-0.079431|London|United Kingdom|SE1 2SD|member_event|115.000|GBP||GBP|Virtual events|112,246,256,257,282,301,313,326||113065
491|The Book Club: The Glass Hotel by Emily St. John Mandel|||Live-streamed via Zoom|United Kingdom||complimentary_event||GBP||GBP|Virtual events|111,168,282,301,326||144311
492|The Book Club: The Glass Hotel by Emily St. John Mandel|||Live-streamed via Zoom|United Kingdom||complimentary_event||GBP||GBP|Virtual events|246,256,257,313||144311
494|The National Running Show South: complimentary access to this in-person event|51.278586|-0.756414|Farnborough|United Kingdom|GU14 6FD|complimentary_event||GBP||GBP|Complimentary,Health & Fitness,Running,Sports|103,104,112,256,257,282,301,313,319,326,380||141424
495|The Book Club: The Ratline: Love, Lies and Justice on the Trail of a Nazi Fugitive by Philippe Sands|||Live-streamed via Zoom|United Kingdom||complimentary_event||GBP||GBP|Virtual events|111,168,2,246,282,301,313,326||144311
496|The Book Club: The Ratline: Love, Lies and Justice on the Trail of a Nazi Fugitive by Philippe Sands|||Live-streamed via Zoom|United Kingdom||complimentary_event||GBP||GBP|Virtual events|246,256,257,313||144311
497|The Book Club: The Less Dead by Denise Mina|||Live-streamed via Zoom|United Kingdom||complimentary_event||GBP||GBP|Virtual events|111,168,282,301,326||144311
498|The Book Club: The Less Dead by Denise Mina|||Live-streamed via Zoom|United Kingdom||complimentary_event||GBP||GBP|Virtual events|246,256,257,313||144311
499|Organise the Marie Kondo way: join our virtual event|51.480477|-0.155994|Live-streamed via Zoom|United Kingdom||complimentary_event||GBP||GBP|Digital events,Interactive,Masterclass,Wellbeing|112,246,256,257,282,301,313,326||144731
500|Fever-Tree: cocktail masterclass with the experts|51.480477|-0.155994|Live-streamed via Zoom|United Kingdom|SW11 4NJ (Sat nav: SW8 4NW)|member_event|27.500|GBP||GBP|Digital events,Drinks,Masterclass|112,2,246,256,257,282,301,313,326||146397
501|Upgrade your travel photography with Ben Nichols and MacLean & Bruce|||Live-streamed via Zoom|United Kingdom||complimentary_event||GBP||GBP|Complimentary,Photography,Virtual events|112,256,257,282,301,313,326||146494
502|Preview Sublimage Lumiere Collection, Chanel Beauté's newest skincare range|22.282893|114.155621|Hong Kong|Hong Kong SAR||complimentary_event||GBP||GBP|Events|313||141032
503|Christie’s: Jean-Michel Basquiat exhibition viewing and guided tour|22.282893|114.155621|Hong Kong|Hong Kong SAR||complimentary_event|0.000|HKD||GBP|Art & Culture|151,152,153,2||138725
504|[Fully Booked] Christie’s: reserved seats at Hong Kong’s Spring Auctions|22.282893|114.155621|Hong Kong|Hong Kong SAR||complimentary_event|0.000|HKD||GBP|Art & Culture|151,152,153,2||138725
505|Christie’s: deepen your art knowledge with Christie’s Education live courses|22.282893|114.155621|Hong Kong|Hong Kong SAR||complimentary_event|0.000|HKD||GBP|Art & Culture|151,152,153,2||138725
506|Get nearer to Alan Shearer: an evening with the soccer legend|||Live-streamed via Zoom|United Kingdom||complimentary_event||GBP||GBP|Complimentary,Digital events,Interactive,Masterclass,Virtual events,Webinars|111,156,158,168,172,223,224,225,226,238,239,256,257,258,271,276,301,313,318,319,336,337||146766
507|How to tackle anxiety and stress: join our expert-led workshop|||Live-streamed via Zoom|Global||complimentary_event||GBP||GBP|Health & Fitness,Sports,Virtual events|112,2,246,257,282,301,313,326||146789
508|Virtual tasting with Champagne Larmandier-Bernier|22.282893|114.155621|Hong Kong|Hong Kong SAR||member_event|1320.000|HKD||GBP|Digital events|151,152,153||146073
509|HomeBrew Co-Op: virtual beer brewing workshop|1.296021|103.854269|Live-streamed via Zoom|Singapore||member_event|100.000|SGD||GBP||155||146902
510|How to take Instagram-worthy food pics: a complimentary food photography workshop|||Live-streamed via Zoom|United Kingdom||complimentary_event||GBP||GBP|Complimentary,Digital events,Dining,Photography,Virtual events|112,256,257,282,301,313,326||146493
511|Digital event: Dan sake tasting with Joshua Kalinan, Master Sake Sommelier|||Live-streamed via Zoom|Global||complimentary_event||SGD||GBP|Drinks|155,197,198,302,83,85,86||144446
512|Join a live cook-along with The Raymond Blanc Cookery School|||Live-streamed via Zoom|United Kingdom||member_event|60.000|GBP||GBP|Cooking,Masterclass,Virtual events|111,168,242||115897
513|The Book Club: The Other People by C.J. Tudor|22.282893|114.155621|Zoom|Hong Kong SAR||complimentary_event||GBP||GBP|Digital events|151,152,153||144311
514|Afternoon tea with MATCHESFASHION and Fortnum & Mason|51.528308|-0.381777|London|United Kingdom|W1K 3AP|complimentary_event||GBP||GBP|Dining,Fashion,For her,Gifting|168|MATCHESFASHION and Fortnum & Mason|
515|How to shoot like a travel photographer: an expert-led, live workshop with Maclean & Bruce|||Live-streamed via Zoom|United Kingdom||complimentary_event|0.000|GBP||GBP|Art & Culture,Digital events,Photography|111,168,242||146494
516|[Complimentary book fully redeemed] The Book Club: The Other People by C.J. Tudor|1.305072|103.846986|Live-streamed via Zoom|Singapore||complimentary_event|0.000|SGD||GBP||155||144311
517|Watchmaking masterclass with Jaeger-LeCoultre|1.296021|103.854269|Singapore 018972|Singapore||complimentary_event||GBP||GBP|Watches and jewellery|265||146871
518|Discuss 19th-century art with Christie’s experts: you're invited|||Live-streamed via Zoom|United Kingdom||complimentary_event||GBP||GBP|Art & Culture,Complimentary,Education,Virtual events|111,168||138725
519|Travel in the time of COVID-19: join our expert talk|||Live-streamed via Zoom|United Kingdom||complimentary_event|0.000|GBP||GBP|Virtual events|111,168,2,242,246,313||147028
521|Online mandala painting workshop with MeMeraki|1.296021|103.854269|Live-streamed via Zoom|Singapore||member_event|11.000|SGD||GBP|Art & Culture|155||146903
522|[Fully Booked]  Insider secrets to diamond buying: a Ryder Diamonds masterclass|22.352483|113.847507|Central Hong Kong|Hong Kong SAR|999077|complimentary_event||GBP||GBP|Masterclass|2|Ryder Diamonds Hong Kong|147077
524|Live family cooking class with BÉABA and chef Esther Sham|||Live-streamed via Zoom|Hong Kong SAR||complimentary_event||GBP||GBP|Family|151,155||9717
525|Online mandala painting workshop with MeMeraki|22.282893|114.155621|Live-streamed via Zoom|Hong Kong SAR||member_event|63.640|HKD||GBP|Art & Culture|151||146903
526|Master the art of sleep: virtual mindfulness course with a meditation expert|||Live-streamed|Singapore||member_event|150.000|SGD||GBP|Camelphat Presents Blow! Milton Keynes.,Wellbeing|155||126688
527|Digital event: History and mythology of the Pyramids of Giza|22.282893|114.155621|Live-streamed via Zoom|Hong Kong SAR||complimentary_event||GBP||GBP|Art & Culture|151,152,153||147096
528|Digital event: Unlocking Top University Admissions with HSBC and Crimson Education|1.305072|103.846986|Live-streamed via Zoom|Singapore||complimentary_event||GBP||GBP|Digital events|155||141465
529|How to run a global empire: lessons from beauty mogul Leonard Lauder|||Live-streamed via Zoom|United Kingdom||complimentary_event|0.000|GBP||GBP|Beauty and wellbeing,Complimentary,Digital events,Interactive|112,2,246,301,313||145306
531|Secure your child’s future at an Ivy League university: post-COVID educational trends|||Live-streamed via Zoom|United Kingdom||complimentary_event||GBP||GBP|Digital events,Education, Education, Education,Family,Webinars|112,246,256,257,282,301,313,326||141465
532|Join our virtual summer kids’ party|||Live-streamed via Zoom|United Kingdom||complimentary_event||GBP||GBP|Children,Digital events,Interactive,Special events,Things to do,Webinars|111,168|Sharky & George|114106
533|The Book Club: Djinn Patrol on the Purple Line by Deepa Anappara|||Live-streamed via Zoom|United Kingdom||complimentary_event||GBP||GBP|Complimentary,Digital events,Interactive,Masterclass|111,168,282,301,326,380||144311
534|The Book Club: Re-educated by Lucy Kellaway|||Live-streamed via Zoom|United Kingdom||complimentary_event||GBP||GBP|Complimentary,Digital events,Interactive,Masterclass|111,168,282,301,326,380||144311
535|The Book Club: The Black Dress by Deborah Moggach|||Live-streamed via Zoom|United Kingdom||complimentary_event||GBP||GBP|Complimentary,Digital events,Interactive,Masterclass|111,168,282,301,326,380||144311
536|La Piñata Tequila and Mezcal Festival: complimentary tickets|51.508172|-0.061756|London|United Kingdom|E1W 2SF|complimentary_event||GBP||GBP|Complimentary,Drinks,Events,Festivals,Special events,What's on|112,301,326,380||136559
537|Join the Junipalooza gin fest with a pair of complimentary tickets|51.508172|-0.061756|London|United Kingdom|E1W 3HZ|complimentary_event||GBP||GBP|Complimentary,Drinks,Events,Festivals,Special events|112,301,380||136559
538|The Festival of Quilts: complimentary tickets|52.454243|-1.719204|Birmingham|United Kingdom|B40 1NT|complimentary_event||GBP||GBP|Complimentary,Events,Festivals|112,256,257,301,326||146719
539|The Book Club: Djinn Patrol on the Purple Line by Deepa Anappara|||Live-streamed via Zoom|United Kingdom||complimentary_event||GBP||GBP|Complimentary,Digital events,Interactive,Masterclass|246,256,257,313||144311
540|The Book Club: Re-educated by Lucy Kellaway|||Live-streamed via Zoom|United Kingdom||complimentary_event||GBP||GBP|Complimentary,Digital events,Interactive,Masterclass|2,246,256,257,313||144311
541|The Book Club: The Black Dress by Deborah Moggach|||Live-streamed via Zoom|United Kingdom||complimentary_event||GBP||GBP|Complimentary,Digital events,Interactive,Masterclass|246,256,257,313||144311
542|A dog's life: complimentary tickets to DogFest Hertfordshire|51.872900|-0.214690|Stevenage|United Kingdom|SG1 2AX|complimentary_event|21.400|GBP||GBP|Complimentary,Dogfest South - Saturday,Dogfest South - Sunday,Dogfest South - Weekend,Puppy|103,111,112,168,256,257,301,326,389||146719
543|A dog’s day out: your complimentary ticket to DogFest West|51.717398|-1.972031|Gloucestershire|United Kingdom|GL7 2BT|complimentary_event|18.730|GBP||GBP|Complimentary,Dogfest West - Saturday,Dogfest West - Sunday,Dogfest West - Weekend|112,256,257,301,326||146719
544|A dog’s day out: your complimentary ticket to DogFest North|53.331230|-2.386855|Cheshire|United Kingdom|WA16 6SG|complimentary_event|18.730|GBP||GBP|Complimentary,Dogfest North,Dogfest North - Saturday,Dogfest North - Sunday,Dogfest North - Weekend|2||146719
545|Voice coaching for kids: a special workshop from The Drama Hut|||Live-streamed via Zoom|United Kingdom||complimentary_event||GBP||GBP|Complimentary,Digital events,Education,Family,Virtual events|112,246,256,257,282,301,313,326,380||143975
546|Whisky tasting with Michel Couvreur at PDT|22.282893|114.155621|Hong Kong|Hong Kong SAR||member_event|990.000|HKD||GBP|Drinks|151,152,153||146232
547|A four-week virtual summer camp for kids with The Drama Hut|||Live-streamed via Zoom|United Kingdom||complimentary_event||GBP||GBP|Complimentary,Digital events,Education,Family,Webinars|111,168||143975
548|Live life large with The Elite London: secure your complimentary tickets|51.610469|-0.805004|Buckinghamshire|United Kingdom||complimentary_event|15.000|GBP||GBP|Events|111,112,168,326||117133
549|(Complimentary book fully redeemed) The Book Club: Wintering by Katherine May|1.296021|103.854269|Live-streamed via Zoom|Singapore||complimentary_event||GBP||GBP|Education,Virtual events|155,266||144311
550|Secure your child’s future at a leading university: educational trends in a post-COVID world|||Live-streamed via Zoom|United Kingdom||complimentary_event||GBP||GBP|Complimentary,Digital events,Education,Family,Webinars|111,168||141465
552|Exclusive one-night-only Sake pairing dinner at Gonpachi|22.282893|114.155621|Hong Kong|Hong Kong SAR||member_event|2000.000|HKD||GBP|Food and drink|151,152,153||146999
553|Live online: Up close and personal with Broadway star Callan Purcell|1.296021|103.854269|Live-streamed via Zoom|Singapore||complimentary_event||GBP||GBP|Complimentary|155||135729
554|Digital event: History and mythology of the Pyramids of Giza|1.305072|103.846986|Live-streamed via Zoom|Hong Kong SAR||complimentary_event||GBP||GBP|Art & Culture|155||147096
555|Join our live chat with the founder of Dyson|||Livestreamed via Zoom|United Kingdom||complimentary_event|15.000|GBP||GBP|Complimentary,Education,Fashion,Interactive,Virtual events,Webinars|111,112,168,256,257,301,326||145305
556|The Book Club: Wintering by Katherine May|22.282893|114.155621|Live-streamed via Zoom|Hong Kong SAR||complimentary_event||GBP||GBP|Education|151,152,153,353,354,355||144311
557|The Book Club: The Mermaid of Black Conch by Monique Roffey|||Live-streamed via Zoom|United Kingdom||complimentary_event||GBP||GBP|Complimentary,Digital events,Interactive,Masterclass|111,168,282,301,326|The Book Club|144311
558|The Book Club: The Mermaid of Black Conch by Monique Roffey|||Live-streamed via Zoom|United Kingdom||complimentary_event||GBP||GBP|Complimentary,Digital events,Interactive,Masterclass|2,246,256,257,313|The Book Club|144311
560|The Book Club: Operation Morthor by Ravi Somaiya|||Live-streamed via Zoom|United Kingdom||complimentary_event||GBP||GBP|Complimentary,Digital events,Interactive,Masterclass|111,168,282,301,326|The Book Club|144311
562|The Book Club: The Silver Collar by Antonia Hodgson|||Live-streamed via Zoom|United Kingdom||complimentary_event||GBP||GBP|Complimentary,Digital events,Interactive,Masterclass|111,168,282,301,326|The Book Club|144311
563|The Book Club: The Silver Collar by Antonia Hodgson|||Live-streamed via Zoom|United Kingdom||complimentary_event||GBP||GBP|Complimentary,Digital events,Interactive,Masterclass|2,246,256,257,313|The Book Club|144311
564|The Book Club: Operation Morthor by Ravi Somaiya|||Live-streamed via Zoom|United Kingdom||complimentary_event||GBP||GBP|Complimentary,Digital events,Interactive,Masterclass|256,257,313|The Book Club|144311
565|Go green with beeswax wraps: join our interactive workshop|1.313984|103.564053|21 Bukit Batok Crescent|Singapore|658065|member_event|44.000|SGD||GBP|Creative Writing Workshop,Home and technology,Interactive|155,302,85,86|The Sustainability Project|146904
566|Exclusive one-day only weekend brunch at Aria|22.280985|114.153292|Hong Kong|Hong Kong SAR||member_event|715.000|HKD|382.800|HKD|Food and drink|151,152,153|Aria Italian|146363
567|Shanghai Tang: Scarf Styling Workshop with celebrity fashion stylist, Keith Png|1.284281|103.857845|Singapore|Singapore||complimentary_event||GBP||GBP|Fashion,Home and technology|155||147155
568|Discover the secrets of scent: join our exclusive fragrance masterclass|||Live-streamed via Zoom|United Kingdom||member_event|15.000|GBP||GBP|Beauty and wellbeing,Digital events,Interactive|111,168|Acqua di Parma|139977
569|Homebuilding & Renovating Show: complimentary tickets|51.508460|0.029846|London|United Kingdom|E16 1XL|complimentary_event|18.000|GBP||GBP|Complimentary|112,256,301||139195
570|Raise your glass: Wine investment and Market Outlook with HSBC and Cult Wines|||Live-streamed via Zoom|Singapore||complimentary_event||GBP||GBP|Complimentary,Drinks,Virtual events|155||143407
571|Complimentary tickets to The Knitting & Stitching Show London|51.594057|-0.129760|London|United Kingdom|N22 7AY|complimentary_event|18.500|GBP||GBP|Art & Culture,Home and garden|103,104,112,256,301||136343
572|Your access to a private preview: The Other Art Fair, London|51.521100|-0.075144|London|United Kingdom|E1 6QR|complimentary_event|25.000|GBP||GBP|Art & Culture,London|103,104,112,256,257,282,301,326||129763
573|Teeming with talent: your complimentary pair of tickets to the Affordable Art Fair, London|51.471809|-0.184626|London|United Kingdom|SW8 4NW|complimentary_event|44.000|GBP||GBP|Complimentary,Events|112,256,282,301,326||123808
574|The Book Club: 1979 by Val McDermid|||Live-streamed via Zoom|United Kingdom||complimentary_event||GBP||GBP|Complimentary,Digital events,Interactive,Masterclass|111,168,282,301,326||144311
575|The Book Club: 1979 by Val McDermid|||Live-streamed via Zoom|United Kingdom||complimentary_event||GBP||GBP|Complimentary,Digital events,Interactive,Masterclass|256,257,313||144311
576|The Book Club: English Pastoral: An Inheritance by James Rebanks|||Live-streamed via Zoom|United Kingdom||complimentary_event||GBP||GBP|Complimentary,Digital events,Interactive,Masterclass|111,168,282,301,326||144311
577|The Book Club: English Pastoral: An Inheritance by James Rebanks|||Live-streamed via Zoom|United Kingdom||complimentary_event||GBP||GBP|Complimentary,Digital events,Interactive,Masterclass|246,256,257||
578|Deck the halls with toys from Hamleys: private Christmas shopping and £100 voucher|51.512830|-0.142272|London|United Kingdom||member_event|100.000|GBP||GBP|Children,Christmas,London,Things to do,Toys|111,168||118519
579|OUD WOOD Fragrance Appreciation event by Tom Ford|22.282893|114.155621|Tsim Sha Tsui|Hong Kong SAR||complimentary_event||GBP||GBP|Beauty and wellbeing|151,152,153||146999
580|Join our Hamleys store takeover: private Christmas shopping and £100 voucher|51.512830|-0.142272|London|United Kingdom||member_event|100.000|GBP||GBP|Children,Christmas,London,Things to do,Toys|112,246,256,257,282,301,326||118519
581|Jade Exclusive: Private Cinema Screening for James Bond: No Time to Die|-33.966069|18.466822|London|United Kingdom|WC2H 7LQ|member_event|30.000|GBP||GBP|Cinema,London,Special events,Things to do|111,168||115147
582|Classic James Bond: Goldfinger private screening and a three-course dinner|51.514535|-0.129209|London|United Kingdom|WC2H 9HB|member_event|85.000|GBP||GBP|Cinema,London,Special events,Things to do|111,168||102722
583|[Fully booked] Christie’s: Art and luxury goods previews|22.282893|114.155621|Hong Kong|Hong Kong SAR||complimentary_event||GBP||GBP|Art & Culture|2||138725
